City_ID,City,Country,Date,Lat,Lng,Max Temp,Humidity,Cloudiness,Wind Speed
0,Jamestown,US,2022-02-06 17:18:41,42.097,-79.2353,31.51,40,0,8.01
1,Islahiye,TR,2022-02-06 17:22:22,37.025,36.6306,42.58,89,97,3.74
2,Olinda,BR,2022-02-06 17:22:22,-8.0089,-34.8553,85.73,58,20,9.22
3,Meybod,IR,2022-02-06 17:22:22,32.2501,54.0166,48.22,21,0,2.26
4,Nara,JP,2022-02-06 17:22:22,34.6851,135.8049,38.48,62,12,4.63
5,Ushuaia,AR,2022-02-06 17:20:11,-54.8,-68.3,55.06,58,75,5.75
6,Bredasdorp,ZA,2022-02-06 17:09:25,-34.5322,20.0403,79.56,37,25,9.86
7,Pandharpur,IN,2022-02-06 17:22:23,17.6667,75.3333,77.65,25,53,8.19
8,Batticaloa,LK,2022-02-06 17:22:23,7.7102,81.6924,77.92,77,100,8.66
9,Saint George,US,2022-02-06 17:10:33,37.1041,-113.5841,48.25,32,0,1.99
10,Cape Town,ZA,2022-02-06 17:21:38,-33.9258,18.4232,75.88,51,0,1.01
11,Zharkovskiy,RU,2022-02-06 17:22:24,55.849,32.2697,30.11,90,100,9.64
12,Atar,MR,2022-02-06 17:22:24,20.5169,-13.0499,91.49,6,0,6.93
13,Punta Arenas,CL,2022-02-06 17:21:25,-53.15,-70.9167,69.91,46,75,17.27
14,Yar-Sale,RU,2022-02-06 17:18:47,66.8333,70.8333,-14.48,100,68,6.35
15,Aksu,CN,2022-02-06 17:22:24,41.1231,80.2644,22.46,47,86,2.46
16,Cape Town,ZA,2022-02-06 17:21:38,-33.9258,18.4232,75.88,51,0,1.01
17,Ushuaia,AR,2022-02-06 17:20:11,-54.8,-68.3,55.06,58,75,5.75
18,Ushtobe,KZ,2022-02-06 17:22:25,45.2514,77.9838,20.03,89,45,3.22
19,Klaksvik,FO,2022-02-06 17:12:28,62.2266,-6.589,36.52,61,87,37.51
20,Longyearbyen,SJ,2022-02-06 17:20:34,78.2186,15.6401,19.24,63,40,19.57
21,Brae,GB,2022-02-06 17:22:25,60.3964,-1.353,39.11,59,100,30.4
22,Ushuaia,AR,2022-02-06 17:20:11,-54.8,-68.3,55.06,58,75,5.75
23,Taoudenni,ML,2022-02-06 17:22:26,22.6783,-3.9836,81.27,7,100,8.01
24,Rameshki,RU,2022-02-06 17:22:26,57.3439,36.0453,22.26,97,99,5.73
25,Gravdal,NO,2022-02-06 17:22:26,68.1214,13.5031,33.69,64,40,5.75
26,Paracuru,BR,2022-02-06 17:22:27,-3.41,-39.0306,87.82,59,60,11.79
27,Ushuaia,AR,2022-02-06 17:20:11,-54.8,-68.3,55.06,58,75,5.75
28,Djibo,BF,2022-02-06 17:22:27,14.1022,-1.6306,87.89,8,0,8.34
29,Ushuaia,AR,2022-02-06 17:20:11,-54.8,-68.3,55.06,58,75,5.75
30,Carnarvon,AU,2022-02-06 17:18:42,-24.8667,113.6333,74.8,70,28,23.09
31,Port Alfred,ZA,2022-02-06 17:22:28,-33.5906,26.891,76.17,81,0,30.58
32,Berlevag,NO,2022-02-06 17:14:47,70.8578,29.0864,24.8,86,63,21.85
33,Taoudenni,ML,2022-02-06 17:22:26,22.6783,-3.9836,81.27,7,100,8.01
34,Ushuaia,AR,2022-02-06 17:20:11,-54.8,-68.3,55.06,58,75,5.75
35,Manoel Urbano,BR,2022-02-06 17:22:28,-8.8389,-69.2597,84.87,74,93,3.22
36,Yar-Sale,RU,2022-02-06 17:18:47,66.8333,70.8333,-14.48,100,68,6.35
37,Krasnoye,UA,2022-02-06 17:22:29,49.9145,24.6134,36.75,77,100,16.04
38,Tasiilaq,GL,2022-02-06 17:22:29,65.6145,-37.6368,23.16,60,100,26.24
39,Ponta Do Sol,PT,2022-02-06 17:22:29,32.6667,-17.1,66.13,52,11,12.06
40,Ushuaia,AR,2022-02-06 17:20:11,-54.8,-68.3,55.06,58,75,5.75
41,Ushuaia,AR,2022-02-06 17:20:11,-54.8,-68.3,55.06,58,75,5.75
42,Jamestown,US,2022-02-06 17:18:41,42.097,-79.2353,31.51,40,0,8.01
43,Sinop,TR,2022-02-06 17:22:30,41.7711,34.8709,36.03,95,98,2.75
44,Ushuaia,AR,2022-02-06 17:20:11,-54.8,-68.3,55.06,58,75,5.75
45,Vologda,RU,2022-02-06 17:22:30,59.2187,39.8886,11.75,95,98,7.61
46,Jamestown,US,2022-02-06 17:18:41,42.097,-79.2353,31.51,40,0,8.01
47,Souillac,MU,2022-02-06 17:22:31,-20.5167,57.5167,79.36,83,40,11.5
48,Stephenville,US,2022-02-06 17:23:31,32.2207,-98.2023,48.33,37,0,11.5
49,East London,ZA,2022-02-06 17:23:31,-33.0153,27.9116,74.34,88,40,16.11
50,Saint-Philippe,RE,2022-02-06 17:23:31,-21.3585,55.7679,80.15,81,99,15.7
51,Zemio,CF,2022-02-06 17:23:32,5.0314,25.1361,78.48,19,100,3.11
52,Longyearbyen,SJ,2022-02-06 17:20:34,78.2186,15.6401,19.24,63,40,19.57
53,Xuddur,SO,2022-02-06 17:23:32,4.1213,43.8894,81.81,22,34,10.56
54,Hambantota,LK,2022-02-06 17:22:26,6.1241,81.1185,76.32,74,99,12.8
55,Dombarovskiy,RU,2022-02-06 17:23:32,50.7587,59.5386,20.3,97,100,3.22
56,Mar Del Plata,AR,2022-02-06 17:23:33,-38.0023,-57.5575,66.22,90,100,24.0
57,Ushuaia,AR,2022-02-06 17:20:11,-54.8,-68.3,55.06,58,75,5.75
58,Muros,ES,2022-02-06 17:18:41,42.7762,-9.0603,58.68,60,65,11.41
59,Ponta Do Sol,PT,2022-02-06 17:22:29,32.6667,-17.1,66.13,52,11,12.06
60,Maun,BW,2022-02-06 17:23:33,-19.9833,23.4167,76.91,52,69,7.56
61,Ushuaia,AR,2022-02-06 17:20:11,-54.8,-68.3,55.06,58,75,5.75
62,Neuquen,AR,2022-02-06 17:23:34,-38.9516,-68.0591,84.09,21,0,5.75
63,Sharan,RU,2022-02-06 17:23:34,54.8167,54.0,8.4,98,95,2.77
64,Taoudenni,ML,2022-02-06 17:22:26,22.6783,-3.9836,81.27,7,100,8.01
65,Sorkjosen,NO,2022-02-06 17:23:34,69.8,20.9333,23.54,78,70,14.81
66,Kulhudhuffushi,MV,2022-02-06 17:22:44,6.6221,73.07,80.87,67,80,9.62
67,Carauari,BR,2022-02-06 17:18:55,-4.8828,-66.8958,79.97,80,98,0.63
68,Ushuaia,AR,2022-02-06 17:20:11,-54.8,-68.3,55.06,58,75,5.75
69,Viedma,AR,2022-02-06 17:23:35,-40.8135,-62.9967,72.81,31,15,7.31
70,Port Alfred,ZA,2022-02-06 17:22:28,-33.5906,26.891,76.17,81,0,30.58
71,Busselton,AU,2022-02-06 17:18:44,-33.65,115.3333,55.09,66,77,18.95
72,Ushuaia,AR,2022-02-06 17:20:11,-54.8,-68.3,55.06,58,75,5.75
73,Agadir,MA,2022-02-06 17:23:35,30.4202,-9.5982,81.05,40,20,10.83
74,Farah,AF,2022-02-06 17:23:36,32.5,62.5,47.12,44,0,5.37
75,Matara,LK,2022-02-06 17:23:36,5.9485,80.5353,77.16,78,87,2.48
76,Sao Filipe,CV,2022-02-06 17:23:36,14.8961,-24.4956,75.13,68,0,10.58
77,Mitoc,RO,2022-02-06 17:23:37,48.1,27.0333,42.89,59,100,8.86
78,Arraial Do Cabo,BR,2022-02-06 17:23:37,-22.9661,-42.0278,91.36,58,0,18.41
79,Mumford,GH,2022-02-06 17:23:37,5.2618,-0.759,82.81,71,79,11.95
80,Vagay,RU,2022-02-06 17:23:37,57.9375,69.0217,9.61,95,100,4.72
81,Port Alfred,ZA,2022-02-06 17:22:28,-33.5906,26.891,76.17,81,0,30.58
82,East London,ZA,2022-02-06 17:23:31,-33.0153,27.9116,74.34,88,40,16.11
83,Castellamonte,IT,2022-02-06 17:23:38,45.382,7.7121,46.63,80,98,2.71
84,Padang,ID,2022-02-06 17:22:40,-0.9492,100.3543,77.92,75,100,2.64
85,Loum,CM,2022-02-06 17:23:38,4.7182,9.7351,90.1,37,5,7.09
86,Saint George,US,2022-02-06 17:10:33,37.1041,-113.5841,48.25,32,0,1.99
87,Ilo,PE,2022-02-06 17:23:39,-17.6394,-71.3375,72.9,69,88,6.82
88,Ilulissat,GL,2022-02-06 17:22:39,69.2167,-51.1,1.42,46,100,6.91
89,Hit,IQ,2022-02-06 17:23:39,33.6416,42.8251,57.85,42,52,4.16
90,Mwanza,TZ,2022-02-06 17:23:39,-2.5167,32.9,72.99,62,47,3.8
91,Kasimov,RU,2022-02-06 17:23:40,54.9411,41.3953,14.0,98,96,5.44
92,Port Elizabeth,ZA,2022-02-06 17:21:42,-33.918,25.5701,79.11,83,20,13.8
93,Busselton,AU,2022-02-06 17:18:44,-33.65,115.3333,55.09,66,77,18.95
94,Alexandria,EG,2022-02-06 17:19:21,31.2156,29.9553,58.5,58,0,6.93
95,Hermanus,ZA,2022-02-06 17:23:10,-34.4187,19.2345,73.9,79,7,9.53
96,Ostrovnoy,RU,2022-02-06 17:13:40,68.0531,39.5131,14.68,85,100,22.1
97,Ribeira Grande,PT,2022-02-06 17:23:13,38.5167,-28.7,63.0,82,40,11.5
98,Saldanha,ZA,2022-02-06 17:24:41,-33.0117,17.9442,71.65,92,43,11.32
99,Contamana,PE,2022-02-06 17:20:25,-7.3333,-75.0167,88.56,62,100,5.59
100,Ushuaia,AR,2022-02-06 17:20:11,-54.8,-68.3,55.06,58,75,5.75
101,Georgetown,MY,2022-02-06 17:21:14,5.4112,100.3354,77.95,94,40,0.0
102,Bredasdorp,ZA,2022-02-06 17:24:41,-34.5322,20.0403,74.52,60,25,8.05
103,Saint-Leu,RE,2022-02-06 17:24:41,-21.15,55.2833,79.63,77,100,2.73
104,Jamestown,US,2022-02-06 17:18:41,42.097,-79.2353,31.51,40,0,8.01
105,Kruisfontein,ZA,2022-02-06 17:22:45,-34.0033,24.7314,76.89,67,64,10.22
106,Souillac,MU,2022-02-06 17:22:31,-20.5167,57.5167,79.36,83,40,11.5
107,Ushuaia,AR,2022-02-06 17:20:11,-54.8,-68.3,55.06,58,75,5.75
108,Laela,TZ,2022-02-06 17:24:42,-8.5667,32.05,60.08,98,100,4.18
109,Puerto Baquerizo Moreno,EC,2022-02-06 17:22:43,-0.9,-89.6,81.59,69,20,17.27
110,Ribeira Grande,PT,2022-02-06 17:23:13,38.5167,-28.7,63.0,82,40,11.5
111,Rio Grande,BR,2022-02-06 17:23:22,-32.035,-52.0986,73.51,58,67,13.89
112,Kurkino,RU,2022-02-06 17:24:43,53.4257,38.6582,22.89,97,83,8.43
113,Antofagasta,CL,2022-02-06 17:20:31,-23.65,-70.4,73.22,60,0,8.01
114,Mizdah,LY,2022-02-06 17:24:43,31.4451,12.9801,59.85,18,95,2.59
115,Dhidhdhoo,MV,2022-02-06 17:24:43,6.8833,73.1,80.91,67,89,9.28
116,Port Alfred,ZA,2022-02-06 17:22:28,-33.5906,26.891,76.17,81,0,30.58
117,Santa Cruz De Tenerife,ES,2022-02-06 17:24:44,28.4682,-16.2546,70.72,75,20,5.99
118,Trairi,BR,2022-02-06 17:24:44,-3.2778,-39.2689,86.22,61,53,11.54
119,Nanortalik,GL,2022-02-06 17:24:44,60.1432,-45.2371,13.73,72,100,18.48
120,Ushuaia,AR,2022-02-06 17:20:11,-54.8,-68.3,55.06,58,75,5.75
121,Marzuq,YE,2022-02-06 17:24:45,14.4,46.4667,68.49,34,39,1.14
122,Acara,BR,2022-02-06 17:24:45,-1.9608,-48.1967,83.14,83,99,4.25
123,Port Alfred,ZA,2022-02-06 17:22:28,-33.5906,26.891,76.17,81,0,30.58
124,Bathsheba,BB,2022-02-06 17:09:49,13.2167,-59.5167,84.81,61,40,18.41
125,Saint George,US,2022-02-06 17:23:24,37.1041,-113.5841,48.34,32,0,4.0
126,Torbay,CA,2022-02-06 17:23:21,47.6666,-52.7314,17.76,84,100,17.27
127,Clyde River,CA,2022-02-06 17:22:28,70.4692,-68.5914,-30.77,68,0,5.75
128,Hermanus,ZA,2022-02-06 17:23:10,-34.4187,19.2345,73.9,79,7,9.53
129,Chipinge,ZW,2022-02-06 17:24:46,-20.1883,32.6236,63.12,94,63,1.83
130,Salalah,OM,2022-02-06 17:24:46,17.0151,54.0924,77.09,78,0,1.14
131,Ushuaia,AR,2022-02-06 17:20:11,-54.8,-68.3,55.06,58,75,5.75
132,Brae,GB,2022-02-06 17:22:25,60.3964,-1.353,39.11,59,100,30.4
133,Toul,FR,2022-02-06 17:24:47,48.6667,5.9167,49.05,93,100,32.21
134,Torbay,CA,2022-02-06 17:23:21,47.6666,-52.7314,17.76,84,100,17.27
135,Pangnirtung,CA,2022-02-06 17:22:10,66.1451,-65.7125,-31.0,61,40,2.3
136,Kalamazoo,US,2022-02-06 17:20:27,42.2506,-85.55,31.03,64,0,13.8
137,Jamestown,US,2022-02-06 17:18:41,42.097,-79.2353,31.51,40,0,8.01
138,Cape Town,ZA,2022-02-06 17:21:38,-33.9258,18.4232,75.88,51,0,1.01
139,Ushuaia,AR,2022-02-06 17:20:11,-54.8,-68.3,55.06,58,75,5.75
140,Ushuaia,AR,2022-02-06 17:20:11,-54.8,-68.3,55.06,58,75,5.75
141,Dombasle-Sur-Meurthe,FR,2022-02-06 17:24:47,48.6252,6.3497,49.44,87,100,23.02
142,Samfya,ZM,2022-02-06 17:25:48,-11.3649,29.5565,66.4,91,99,3.06
143,Talara,PE,2022-02-06 17:25:48,-4.5772,-81.2719,84.96,48,0,18.41
144,Bambous Virieux,MU,2022-02-06 17:25:48,-20.3428,57.7575,79.21,83,40,11.5
145,Kruisfontein,ZA,2022-02-06 17:22:45,-34.0033,24.7314,76.89,67,64,10.22
146,Tasiilaq,GL,2022-02-06 17:22:29,65.6145,-37.6368,23.16,60,100,26.24
147,Kanniyakumari,IN,2022-02-06 17:25:49,8.0833,77.5667,78.82,76,62,7.96
148,East London,ZA,2022-02-06 17:23:31,-33.0153,27.9116,74.34,88,40,16.11
149,Kruisfontein,ZA,2022-02-06 17:22:45,-34.0033,24.7314,76.89,67,64,10.22
150,Awjilah,LY,2022-02-06 17:25:49,29.1081,21.2869,62.92,26,4,3.22
151,Kita,ML,2022-02-06 17:25:50,13.0349,-9.4895,95.27,5,2,4.56
152,Busselton,AU,2022-02-06 17:18:44,-33.65,115.3333,55.09,66,77,18.95
153,Bredasdorp,ZA,2022-02-06 17:24:41,-34.5322,20.0403,74.52,60,25,8.05
154,Florianopolis,BR,2022-02-06 17:24:09,-27.6146,-48.5012,86.25,63,40,17.27
155,Nuuk,GL,2022-02-06 17:25:50,64.1835,-51.7216,7.41,72,75,21.85
156,Chimoio,MZ,2022-02-06 17:25:51,-19.1164,33.4833,71.46,94,75,14.97
157,Ushuaia,AR,2022-02-06 17:20:11,-54.8,-68.3,55.06,58,75,5.75
158,Rudbar,AF,2022-02-06 17:25:51,30.15,62.6,57.52,25,0,8.46
159,Stephenville,US,2022-02-06 17:23:31,32.2207,-98.2023,48.33,37,0,11.5
160,Jamestown,US,2022-02-06 17:18:41,42.097,-79.2353,31.51,40,0,8.01
161,Mahebourg,MU,2022-02-06 17:25:52,-20.4081,57.7,79.25,83,40,11.5
162,Ampanihy,MG,2022-02-06 17:25:52,-24.7,44.75,73.72,91,100,21.63
163,Clyde River,CA,2022-02-06 17:22:28,70.4692,-68.5914,-30.77,68,0,5.75
164,Ceica,RO,2022-02-06 17:25:53,46.85,22.1833,38.98,76,100,8.28
165,Ushuaia,AR,2022-02-06 17:20:11,-54.8,-68.3,55.06,58,75,5.75
166,Bambous Virieux,MU,2022-02-06 17:25:48,-20.3428,57.7575,79.21,83,40,11.5
167,Ponta Do Sol,PT,2022-02-06 17:22:29,32.6667,-17.1,66.13,52,11,12.06
168,Ostrovnoy,RU,2022-02-06 17:25:38,68.0531,39.5131,14.68,85,100,22.1
169,Ushuaia,AR,2022-02-06 17:20:11,-54.8,-68.3,55.06,58,75,5.75
170,Hithadhoo,MV,2022-02-06 17:25:51,-0.6,73.0833,82.83,70,25,11.3
171,Touros,BR,2022-02-06 17:25:53,-5.1989,-35.4608,90.5,54,15,12.91
172,Saurimo,AO,2022-02-06 17:25:54,-9.6608,20.3916,68.85,88,77,2.64
173,Ndende,GA,2022-02-06 17:25:54,-2.4008,11.3581,80.67,82,26,2.35
174,Buraydah,SA,2022-02-06 17:25:55,26.326,43.975,57.65,34,0,7.43
175,Ushuaia,AR,2022-02-06 17:20:11,-54.8,-68.3,55.06,58,75,5.75
176,Juliaca,PE,2022-02-06 17:25:55,-15.5,-70.1333,53.58,58,75,10.36
177,Pisco,PE,2022-02-06 17:25:55,-13.7,-76.2167,71.02,83,40,9.22
178,Rocha,UY,2022-02-06 17:25:56,-34.4833,-54.3333,73.33,40,71,17.43
179,Tasiilaq,GL,2022-02-06 17:22:29,65.6145,-37.6368,23.16,60,100,26.24
180,Ribeira Grande,PT,2022-02-06 17:23:13,38.5167,-28.7,63.0,82,40,11.5
181,Grindavik,IS,2022-02-06 17:22:47,63.8424,-22.4338,27.07,80,75,9.22
182,Port Alfred,ZA,2022-02-06 17:22:28,-33.5906,26.891,76.17,81,0,30.58
183,Hermanus,ZA,2022-02-06 17:23:10,-34.4187,19.2345,73.9,79,7,9.53
184,Busselton,AU,2022-02-06 17:18:44,-33.65,115.3333,55.09,66,77,18.95
185,Kruisfontein,ZA,2022-02-06 17:22:45,-34.0033,24.7314,76.89,67,64,10.22
186,Port Alfred,ZA,2022-02-06 17:22:28,-33.5906,26.891,76.17,81,0,30.58
187,Zedelgem,BE,2022-02-06 17:26:57,51.1262,3.1372,51.1,81,98,10.0
188,Cidreira,BR,2022-02-06 17:26:57,-30.1811,-50.2056,81.48,51,18,12.66
189,Pangnirtung,CA,2022-02-06 17:22:10,66.1451,-65.7125,-31.0,61,40,2.3
190,El Seibo,DO,2022-02-06 17:26:58,18.7641,-69.0375,76.12,80,99,11.99
191,Sinegorskiy,RU,2022-02-06 17:26:58,48.0139,40.8447,30.16,80,100,11.41
192,Ushuaia,AR,2022-02-06 17:20:11,-54.8,-68.3,55.06,58,75,5.75
193,Port Alfred,ZA,2022-02-06 17:22:28,-33.5906,26.891,76.17,81,0,30.58
194,Sept-Iles,CA,2022-02-06 17:24:20,50.2001,-66.3821,3.06,56,20,4.0
195,Ponta Do Sol,PT,2022-02-06 17:22:29,32.6667,-17.1,66.13,52,11,12.06
196,Kruisfontein,ZA,2022-02-06 17:22:45,-34.0033,24.7314,76.89,67,64,10.22
197,Galle,LK,2022-02-06 17:26:59,6.0367,80.217,77.29,82,78,3.2
198,Saint George,US,2022-02-06 17:23:24,37.1041,-113.5841,48.34,32,0,4.0
199,Port Alfred,ZA,2022-02-06 17:22:28,-33.5906,26.891,76.17,81,0,30.58
200,Kpalime,TG,2022-02-06 17:27:00,6.9,0.6333,94.71,25,8,4.47
201,Codrington,AU,2022-02-06 17:27:00,-38.2667,141.9667,60.75,71,0,10.6
202,Ushuaia,AR,2022-02-06 17:20:11,-54.8,-68.3,55.06,58,75,5.75
203,Mizdah,LY,2022-02-06 17:24:43,31.4451,12.9801,59.85,18,95,2.59
204,Hithadhoo,MV,2022-02-06 17:25:51,-0.6,73.0833,82.83,70,25,11.3
205,Ushuaia,AR,2022-02-06 17:20:11,-54.8,-68.3,55.06,58,75,5.75
206,Port Elizabeth,ZA,2022-02-06 17:21:42,-33.918,25.5701,79.11,83,20,13.8
207,Mar Del Plata,AR,2022-02-06 17:23:33,-38.0023,-57.5575,66.22,90,100,24.0
208,Gerash,IR,2022-02-06 17:27:01,27.6652,54.1371,53.74,37,0,6.38
209,Mar Del Plata,AR,2022-02-06 17:23:33,-38.0023,-57.5575,66.22,90,100,24.0
210,Port Alfred,ZA,2022-02-06 17:22:28,-33.5906,26.891,76.17,81,0,30.58
211,Ushuaia,AR,2022-02-06 17:20:11,-54.8,-68.3,55.06,58,75,5.75
212,Saint-Philippe,RE,2022-02-06 17:23:31,-21.3585,55.7679,80.15,81,99,15.7
213,Ilulissat,GL,2022-02-06 17:22:39,69.2167,-51.1,1.42,46,100,6.91
214,San Jose,US,2022-02-06 17:25:58,37.3394,-121.895,58.41,65,20,3.44
215,Kismayo,SO,2022-02-06 17:27:01,-0.3582,42.5454,78.37,82,55,14.88
216,Mar Del Plata,AR,2022-02-06 17:23:33,-38.0023,-57.5575,66.22,90,100,24.0
217,Clyde River,CA,2022-02-06 17:22:28,70.4692,-68.5914,-30.77,68,0,5.75
218,Busselton,AU,2022-02-06 17:18:44,-33.65,115.3333,55.09,66,77,18.95
219,Kruisfontein,ZA,2022-02-06 17:22:45,-34.0033,24.7314,76.89,67,64,10.22
220,Punta Arenas,CL,2022-02-06 17:21:25,-53.15,-70.9167,69.91,46,75,17.27
221,Beliu,RO,2022-02-06 17:27:02,46.4833,21.9833,42.82,78,100,8.08
222,Faya,SA,2022-02-06 17:24:53,18.3851,42.4509,55.51,70,5,4.29
223,Hofn,IS,2022-02-06 17:25:47,64.2539,-15.2082,28.74,62,2,13.71
224,Cape Town,ZA,2022-02-06 17:21:38,-33.9258,18.4232,75.88,51,0,1.01
225,Hermanus,ZA,2022-02-06 17:23:10,-34.4187,19.2345,73.9,79,7,9.53
226,Souillac,MU,2022-02-06 17:22:31,-20.5167,57.5167,79.36,83,40,11.5
227,Navalgund,IN,2022-02-06 17:28:03,15.5667,75.3667,70.63,73,45,10.6
228,East London,ZA,2022-02-06 17:23:31,-33.0153,27.9116,74.34,88,40,16.11
229,Grand Gaube,MU,2022-02-06 17:28:03,-20.0064,57.6608,79.38,79,59,4.0
230,Dikson,RU,2022-02-06 17:28:04,73.5069,80.5464,-21.78,99,68,8.68
231,Tabou,CI,2022-02-06 17:28:04,4.423,-7.3528,82.94,70,89,10.36
232,Ushuaia,AR,2022-02-06 17:20:11,-54.8,-68.3,55.06,58,75,5.75
233,Olinda,BR,2022-02-06 17:22:22,-8.0089,-34.8553,85.73,58,20,9.22
234,Polyarnyy,RU,2022-02-06 17:28:05,69.1989,33.4478,18.07,82,100,15.43
235,Ulenje,TZ,2022-02-06 17:28:05,-8.9333,33.6833,57.38,96,100,2.73
236,Koungou,YT,2022-02-06 17:28:05,-12.7336,45.2042,82.11,83,0,8.05
237,East London,ZA,2022-02-06 17:23:31,-33.0153,27.9116,74.34,88,40,16.11
238,Nouadhibou,MR,2022-02-06 17:28:06,20.931,-17.0347,69.78,78,5,14.97
239,Digapahandi,IN,2022-02-06 17:28:06,19.3667,84.5833,64.53,71,42,3.6
240,Ushuaia,AR,2022-02-06 17:20:11,-54.8,-68.3,55.06,58,75,5.75
241,Dzialdowo,PL,2022-02-06 17:28:06,53.2396,20.17,38.97,97,100,17.0
242,Saldanha,ZA,2022-02-06 17:24:41,-33.0117,17.9442,71.65,92,43,11.32
243,Jumla,NP,2022-02-06 17:28:07,29.2747,82.1838,33.89,66,34,5.41
244,San Cristobal,VE,2022-02-06 17:28:07,7.7669,-72.225,68.18,53,87,4.41
245,Ribeira Grande,PT,2022-02-06 17:23:13,38.5167,-28.7,63.0,82,40,11.5
246,Marmato,CO,2022-02-06 17:28:07,5.4784,-75.5927,81.46,65,80,1.92
247,Lichinga,MZ,2022-02-06 17:28:08,-13.3128,35.2406,61.27,95,56,2.59
248,Dikson,RU,2022-02-06 17:28:04,73.5069,80.5464,-21.78,99,68,8.68
249,Hermanus,ZA,2022-02-06 17:23:10,-34.4187,19.2345,73.9,79,7,9.53
250,Busselton,AU,2022-02-06 17:18:44,-33.65,115.3333,55.09,66,77,18.95
251,Dikson,RU,2022-02-06 17:28:04,73.5069,80.5464,-21.78,99,68,8.68
252,Ushuaia,AR,2022-02-06 17:20:11,-54.8,-68.3,55.06,58,75,5.75
253,Omaruru,NA,2022-02-06 17:28:08,-21.4333,15.9333,66.81,91,99,7.99
254,Bredasdorp,ZA,2022-02-06 17:24:41,-34.5322,20.0403,74.52,60,25,8.05
255,Sivagiri,IN,2022-02-06 17:28:09,9.3333,77.4333,76.46,74,73,3.65
256,Rawson,AR,2022-02-06 17:28:09,-43.3002,-65.1023,82.69,21,0,9.22
257,Peniche,PT,2022-02-06 17:28:09,39.3558,-9.3811,66.74,62,6,14.52
258,Kosterevo,RU,2022-02-06 17:28:10,55.9299,39.6144,12.13,99,95,3.6
259,Narsaq,GL,2022-02-06 17:28:10,60.9167,-46.05,8.82,58,100,3.06
260,Iqaluit,CA,2022-02-06 17:28:10,63.7506,-68.5145,-32.31,66,20,4.0
261,Mayor Pablo Lagerenza,PY,2022-02-06 17:28:11,-19.9309,-60.7718,96.96,23,83,12.71
262,Tasiilaq,GL,2022-02-06 17:22:29,65.6145,-37.6368,23.16,60,100,26.24
263,Wajid,SO,2022-02-06 17:28:11,3.8093,43.2471,84.92,18,46,12.64
264,Araouane,ML,2022-02-06 17:28:11,18.9048,-3.5265,80.6,6,0,5.84
265,Lentekhi,GE,2022-02-06 17:28:12,42.7856,42.7261,30.6,97,100,2.98
266,Tsilna,RU,2022-02-06 17:28:12,54.5953,48.1414,22.55,95,100,5.5
267,Banes,CU,2022-02-06 17:28:12,20.9625,-75.7186,83.01,53,1,14.52
268,Ginir,ET,2022-02-06 17:28:12,7.1333,40.7,62.17,21,64,1.88
269,Upernavik,GL,2022-02-06 17:28:13,72.7868,-56.1549,-9.54,93,100,5.44
270,Buraydah,SA,2022-02-06 17:25:55,26.326,43.975,57.65,34,0,7.43
271,Archis,RO,2022-02-06 17:28:13,46.4833,22.05,42.1,80,100,7.47
272,Igrim,RU,2022-02-06 17:29:13,63.1906,64.4162,-8.64,100,40,3.8
273,Saldanha,ZA,2022-02-06 17:24:41,-33.0117,17.9442,71.65,92,43,11.32
274,Ushuaia,AR,2022-02-06 17:20:11,-54.8,-68.3,55.06,58,75,5.75
275,Grand-Santi,GF,2022-02-06 17:29:14,4.25,-54.3833,80.53,89,100,3.67
276,Klaksvik,FO,2022-02-06 17:29:14,62.2266,-6.589,36.52,61,87,37.51
277,Boa Vista,BR,2022-02-06 17:26:16,2.8197,-60.6733,87.78,51,75,11.5
278,Dingle,PH,2022-02-06 17:27:02,10.9995,122.6711,74.84,88,49,8.12
279,Maun,BW,2022-02-06 17:23:33,-19.9833,23.4167,76.91,52,69,7.56
280,Kapoeta,SS,2022-02-06 17:25:18,4.7717,33.5903,86.49,19,95,6.55
281,Chuy,UY,2022-02-06 17:24:31,-33.6971,-53.4616,70.57,52,75,15.19
282,Araioses,BR,2022-02-06 17:29:15,-2.89,-41.9031,87.78,70,20,16.11
283,Callaway,US,2022-02-06 17:29:15,30.153,-85.5699,57.9,62,64,7.76
284,Angoche,MZ,2022-02-06 17:29:16,-16.2325,39.9086,78.94,81,88,7.61
285,Dunkirk,FR,2022-02-06 17:29:16,51.05,2.3667,50.09,69,95,8.99
286,Tasiilaq,GL,2022-02-06 17:22:29,65.6145,-37.6368,23.16,60,100,26.24
287,Paamiut,GL,2022-02-06 17:29:17,61.994,-49.6678,4.87,75,100,9.19
288,Yanam,IN,2022-02-06 17:29:07,16.7333,82.2167,69.76,77,20,3.62
289,Georgetown,MY,2022-02-06 17:21:14,5.4112,100.3354,77.95,94,40,0.0
290,Roald,NO,2022-02-06 17:29:17,62.5833,6.1333,39.99,65,75,13.8
291,Togul,RU,2022-02-06 17:29:17,53.465,85.9128,0.55,95,88,2.53
292,Upernavik,GL,2022-02-06 17:28:13,72.7868,-56.1549,-9.54,93,100,5.44
293,Havoysund,NO,2022-02-06 17:29:18,70.9963,24.6622,30.43,74,30,29.1
294,Qaanaaq,GL,2022-02-06 17:29:18,77.484,-69.3632,-12.89,61,65,8.14
295,Inirida,CO,2022-02-06 17:29:18,3.8653,-67.9239,86.18,68,81,3.36
296,Cidreira,BR,2022-02-06 17:26:57,-30.1811,-50.2056,81.48,51,18,12.66
297,Cape Town,ZA,2022-02-06 17:21:38,-33.9258,18.4232,75.88,51,0,1.01
298,Cidreira,BR,2022-02-06 17:26:57,-30.1811,-50.2056,81.48,51,18,12.66
299,Bafia,CM,2022-02-06 17:29:19,4.75,11.2333,87.89,17,13,1.3
300,Skibbereen,IE,2022-02-06 17:29:19,51.55,-9.2667,51.12,81,86,20.96
301,Hermanus,ZA,2022-02-06 17:23:10,-34.4187,19.2345,73.9,79,7,9.53
302,Klaksvik,FO,2022-02-06 17:29:14,62.2266,-6.589,36.52,61,87,37.51
303,Sindor,RU,2022-02-06 17:29:20,62.8629,51.8905,15.33,92,99,8.72
304,Torbay,CA,2022-02-06 17:23:21,47.6666,-52.7314,17.76,84,100,17.27
305,Ribeira Grande,PT,2022-02-06 17:23:13,38.5167,-28.7,63.0,82,40,11.5
306,Cape Town,ZA,2022-02-06 17:21:38,-33.9258,18.4232,75.88,51,0,1.01
307,Jasa Tomic,RS,2022-02-06 17:29:20,45.4469,20.8553,48.25,70,55,8.59
308,Husavik,IS,2022-02-06 17:29:21,66.0449,-17.3389,26.51,87,100,11.25
309,Nur,PL,2022-02-06 17:29:21,52.6683,22.3221,40.78,97,100,17.49
310,Santa Helena De Goias,BR,2022-02-06 17:29:21,-17.8136,-50.5969,84.49,63,54,5.55
311,Sur,OM,2022-02-06 17:29:22,22.5667,59.5289,71.74,71,0,8.25
312,Sao Filipe,CV,2022-02-06 17:23:36,14.8961,-24.4956,75.13,68,0,10.58
313,Ribeira Grande,PT,2022-02-06 17:23:13,38.5167,-28.7,63.0,82,40,11.5
314,Ushuaia,AR,2022-02-06 17:20:11,-54.8,-68.3,55.06,58,75,5.75
315,Ponta Do Sol,PT,2022-02-06 17:22:29,32.6667,-17.1,66.13,52,11,12.06
316,Ostrovnoy,RU,2022-02-06 17:25:38,68.0531,39.5131,14.68,85,100,22.1
317,Qaanaaq,GL,2022-02-06 17:29:18,77.484,-69.3632,-12.89,61,65,8.14
318,Palmares Do Sul,BR,2022-02-06 17:30:23,-30.2578,-50.5097,80.2,49,6,12.66
319,Saint Albans,GB,2022-02-06 17:30:23,51.75,-0.3333,50.52,71,75,21.85
320,Piranshahr,IR,2022-02-06 17:30:24,36.701,45.1413,22.12,92,36,4.97
321,Tazovskiy,RU,2022-02-06 17:30:24,67.4667,78.7,-22.85,100,95,3.74
322,Shahdadkot,PK,2022-02-06 17:30:24,27.8477,67.9055,63.99,29,55,7.23
323,Ushuaia,AR,2022-02-06 17:20:11,-54.8,-68.3,55.06,58,75,5.75
324,Adrar,MR,2022-02-06 17:30:25,20.5022,-10.0711,78.24,7,0,7.52
325,Hit,IQ,2022-02-06 17:23:39,33.6416,42.8251,57.85,42,52,4.16
326,Ushuaia,AR,2022-02-06 17:20:11,-54.8,-68.3,55.06,58,75,5.75
327,Yendi,GH,2022-02-06 17:30:25,9.4427,-0.0099,92.28,11,1,3.96
328,Kaoma,ZM,2022-02-06 17:30:26,-14.7833,24.8,66.0,97,100,4.47
329,Necochea,AR,2022-02-06 17:28:48,-38.5473,-58.7368,64.04,74,95,19.86
330,Ilulissat,GL,2022-02-06 17:22:39,69.2167,-51.1,1.42,46,100,6.91
331,Pangnirtung,CA,2022-02-06 17:22:10,66.1451,-65.7125,-31.0,61,40,2.3
332,Ilulissat,GL,2022-02-06 17:22:39,69.2167,-51.1,1.42,46,100,6.91
333,Pithapuram,IN,2022-02-06 17:30:27,17.1167,82.2667,69.37,75,33,3.51
334,Dikson,RU,2022-02-06 17:28:04,73.5069,80.5464,-21.78,99,68,8.68
335,Barentu,ER,2022-02-06 17:30:27,15.1139,37.5928,66.9,35,2,6.51
336,Punta Arenas,CL,2022-02-06 17:21:25,-53.15,-70.9167,69.91,46,75,17.27
337,Jamestown,US,2022-02-06 17:18:41,42.097,-79.2353,31.51,40,0,8.01
338,Ushuaia,AR,2022-02-06 17:20:11,-54.8,-68.3,55.06,58,75,5.75
339,Upernavik,GL,2022-02-06 17:28:13,72.7868,-56.1549,-9.54,93,100,5.44
340,Port Blair,IN,2022-02-06 17:30:28,11.6667,92.75,80.64,83,20,8.05
341,Dikson,RU,2022-02-06 17:28:04,73.5069,80.5464,-21.78,99,68,8.68
342,Pangody,RU,2022-02-06 17:30:28,65.85,74.4859,-20.65,100,67,3.18
343,Havelock,US,2022-02-06 17:30:29,34.8791,-76.9013,48.97,69,40,4.0
344,Port Alfred,ZA,2022-02-06 17:22:28,-33.5906,26.891,76.17,81,0,30.58
345,Rio Brilhante,BR,2022-02-06 17:27:36,-21.8019,-54.5464,83.88,62,98,8.55
346,East London,ZA,2022-02-06 17:23:31,-33.0153,27.9116,74.34,88,40,16.11
347,Sylacauga,US,2022-02-06 17:30:29,33.1732,-86.2516,52.83,45,100,0.0
348,Carlisle,US,2022-02-06 17:30:29,40.2015,-77.1889,32.99,55,93,1.99
349,Nanortalik,GL,2022-02-06 17:24:44,60.1432,-45.2371,13.73,72,100,18.48
350,Laguna,US,2022-02-06 17:30:30,38.421,-121.4238,59.5,73,0,1.01
351,Kutum,SD,2022-02-06 17:30:30,14.2,24.6667,59.09,15,45,11.68
352,Kyzyl-Suu,KG,2022-02-06 17:30:30,42.3414,78.0056,22.08,70,100,6.08
353,Port Alfred,ZA,2022-02-06 17:22:28,-33.5906,26.891,76.17,81,0,30.58
354,Torbay,CA,2022-02-06 17:23:21,47.6666,-52.7314,17.76,84,100,17.27
355,Polis,CY,2022-02-06 17:30:31,35.0367,32.4264,57.02,92,64,2.04
356,Kulhudhuffushi,MV,2022-02-06 17:22:44,6.6221,73.07,80.87,67,80,9.62
357,Qaanaaq,GL,2022-02-06 17:29:18,77.484,-69.3632,-12.89,61,65,8.14
358,Dikson,RU,2022-02-06 17:28:04,73.5069,80.5464,-21.78,99,68,8.68
359,Kangaatsiaq,GL,2022-02-06 17:30:31,68.3065,-53.4641,0.27,94,100,6.67
360,Hermanus,ZA,2022-02-06 17:23:10,-34.4187,19.2345,73.9,79,7,9.53
361,Nanortalik,GL,2022-02-06 17:24:44,60.1432,-45.2371,13.73,72,100,18.48
362,Saint-Philippe,RE,2022-02-06 17:23:31,-21.3585,55.7679,80.15,81,99,15.7
363,Ushuaia,AR,2022-02-06 17:20:11,-54.8,-68.3,55.06,58,75,5.75
364,Adrar,MR,2022-02-06 17:30:25,20.5022,-10.0711,78.24,7,0,7.52
365,Ushuaia,AR,2022-02-06 17:20:11,-54.8,-68.3,55.06,58,75,5.75
366,Dikson,RU,2022-02-06 17:28:04,73.5069,80.5464,-21.78,99,68,8.68
367,Cockburn Town,TC,2022-02-06 17:31:22,21.4612,-71.1419,78.76,47,40,10.36
368,Longyearbyen,SJ,2022-02-06 17:20:34,78.2186,15.6401,19.24,63,40,19.57
369,Saverne,FR,2022-02-06 17:31:33,48.8333,7.25,45.12,89,100,28.05
370,Upernavik,GL,2022-02-06 17:28:13,72.7868,-56.1549,-9.54,93,100,5.44
371,Divnoye,RU,2022-02-06 17:31:33,45.9089,43.3547,33.1,97,99,22.75
372,Mantua,IT,2022-02-06 17:31:33,45.1667,10.7833,48.81,93,64,6.11
373,Kochubey,RU,2022-02-06 17:31:33,44.3861,46.5825,35.82,62,97,3.11
374,Camacha,PT,2022-02-06 17:31:34,33.0833,-16.3333,61.54,67,75,17.27
375,Kavaratti,IN,2022-02-06 17:31:34,10.5669,72.642,78.24,67,44,9.55
376,Mubi,NG,2022-02-06 17:31:35,10.2676,13.2644,77.49,16,0,4.88
377,Torbay,CA,2022-02-06 17:23:21,47.6666,-52.7314,17.76,84,100,17.27
378,Hermanus,ZA,2022-02-06 17:23:10,-34.4187,19.2345,73.9,79,7,9.53
379,Busselton,AU,2022-02-06 17:18:44,-33.65,115.3333,55.09,66,77,18.95
380,Toamasina,MG,2022-02-06 17:31:35,-18.1667,49.3833,82.4,78,40,5.75
381,Punta Arenas,CL,2022-02-06 17:21:25,-53.15,-70.9167,69.91,46,75,17.27
382,Upernavik,GL,2022-02-06 17:28:13,72.7868,-56.1549,-9.54,93,100,5.44
383,Valley,US,2022-02-06 17:31:36,45.1277,-116.1262,29.12,78,10,3.74
384,Porto Novo,BJ,2022-02-06 17:31:36,6.4965,2.6036,85.82,71,68,8.55
385,Kumluca,TR,2022-02-06 17:31:36,36.3703,30.2869,48.67,64,50,5.7
386,Olinda,BR,2022-02-06 17:22:22,-8.0089,-34.8553,85.73,58,20,9.22
387,Tiznit,MA,2022-02-06 17:31:37,29.5833,-9.5,67.57,29,11,4.94
388,Watford,GB,2022-02-06 17:31:37,51.6553,-0.396,49.78,71,20,18.41
389,Saint-Philippe,RE,2022-02-06 17:23:31,-21.3585,55.7679,80.15,81,99,15.7
390,Georgetown,MY,2022-02-06 17:21:14,5.4112,100.3354,77.95,94,40,0.0
391,Torbay,CA,2022-02-06 17:23:21,47.6666,-52.7314,17.76,84,100,17.27
392,Jamestown,US,2022-02-06 17:18:41,42.097,-79.2353,31.51,40,0,8.01
393,Tolstoy-Yurt,RU,2022-02-06 17:31:38,43.4444,45.7722,32.32,80,0,8.95
394,Aguimes,ES,2022-02-06 17:31:38,27.9054,-15.4461,68.67,71,20,21.85
395,Setermoen,NO,2022-02-06 17:31:39,68.861,18.3486,28.36,88,99,7.96
396,Arraial Do Cabo,BR,2022-02-06 17:23:37,-22.9661,-42.0278,91.36,58,0,18.41
397,Port Alfred,ZA,2022-02-06 17:22:28,-33.5906,26.891,76.17,81,0,30.58
398,Bojnurd,IR,2022-02-06 17:31:39,37.4747,57.329,30.15,80,40,4.61
399,Olafsvik,IS,2022-02-06 17:30:58,64.8945,-23.7142,28.18,70,86,16.71
400,Viedma,AR,2022-02-06 17:23:35,-40.8135,-62.9967,72.81,31,15,7.31
401,Urumqi,CN,2022-02-06 17:32:40,43.801,87.6005,-1.25,78,6,0.0
402,Saint-Philippe,RE,2022-02-06 17:23:31,-21.3585,55.7679,80.15,81,99,15.7
403,Cape Town,ZA,2022-02-06 17:30:45,-33.9258,18.4232,74.88,53,0,1.01
404,Lesnoy,RU,2022-02-06 17:32:40,57.6198,63.0784,11.07,94,100,5.66
405,Dhanwar,IN,2022-02-06 17:32:40,24.4167,85.9833,57.09,60,5,2.55
406,Tasiilaq,GL,2022-02-06 17:32:41,65.6145,-37.6368,23.16,60,100,30.91
407,Namibe,AO,2022-02-06 17:32:41,-15.1961,12.1522,74.7,70,79,13.87
408,Longyearbyen,SJ,2022-02-06 17:32:42,78.2186,15.6401,19.24,63,40,12.66
409,Rocha,UY,2022-02-06 17:25:56,-34.4833,-54.3333,73.33,40,71,17.43
410,Sabya,SA,2022-02-06 17:32:42,17.1495,42.6254,78.42,65,18,9.19
411,Mahebourg,MU,2022-02-06 17:25:52,-20.4081,57.7,79.25,83,40,11.5
412,Jamestown,US,2022-02-06 17:29:04,42.097,-79.2353,31.51,40,0,5.01
413,Vadodara,IN,2022-02-06 17:30:25,22.3,73.2,68.56,23,1,4.38
414,Mahebourg,MU,2022-02-06 17:25:52,-20.4081,57.7,79.25,83,40,11.5
415,Bredasdorp,ZA,2022-02-06 17:24:41,-34.5322,20.0403,74.52,60,25,8.05
416,Saint-Philippe,RE,2022-02-06 17:23:31,-21.3585,55.7679,80.15,81,99,15.7
417,Ushuaia,AR,2022-02-06 17:32:43,-54.8,-68.3,55.06,58,75,5.75
418,Sakakah,SA,2022-02-06 17:32:43,29.9697,40.2064,53.17,49,4,8.68
419,Jamestown,US,2022-02-06 17:29:04,42.097,-79.2353,31.51,40,0,5.01
420,Hermanus,ZA,2022-02-06 17:23:10,-34.4187,19.2345,73.9,79,7,9.53
421,Port Alfred,ZA,2022-02-06 17:32:44,-33.5906,26.891,75.43,82,3,28.25
422,Ilulissat,GL,2022-02-06 17:22:39,69.2167,-51.1,1.42,46,100,6.91
423,Bandundu,CD,2022-02-06 17:32:44,-3.3167,17.3667,79.5,63,75,3.96
424,Imbituba,BR,2022-02-06 17:32:05,-28.24,-48.6703,84.09,74,27,12.59
425,Harper,LR,2022-02-06 17:27:56,4.375,-7.7169,82.9,69,84,10.49
426,Tripoli,LY,2022-02-06 17:32:45,32.8752,13.1875,59.72,78,92,11.14
427,Berlevag,NO,2022-02-06 17:32:45,70.8578,29.0864,24.8,85,57,19.57
428,Adrar,MR,2022-02-06 17:30:25,20.5022,-10.0711,78.24,7,0,7.52
429,Jacmel,HT,2022-02-06 17:32:45,18.2342,-72.5347,85.84,56,1,8.14
430,Kongolo,CD,2022-02-06 17:32:46,-5.3833,27.0,71.53,93,94,1.41
431,Afonso Claudio,BR,2022-02-06 17:32:46,-20.0742,-41.1239,78.26,84,61,5.79
432,Arraial Do Cabo,BR,2022-02-06 17:23:37,-22.9661,-42.0278,91.36,58,0,18.41
433,Mapiripan,CO,2022-02-06 17:32:46,2.8892,-72.1256,92.8,37,83,7.27
434,Ushuaia,AR,2022-02-06 17:32:43,-54.8,-68.3,55.06,58,75,5.75
435,Gornopravdinsk,RU,2022-02-06 17:32:47,60.05,69.9,11.68,95,99,6.96
436,Saint-Philippe,RE,2022-02-06 17:23:31,-21.3585,55.7679,80.15,81,99,15.7
437,Busselton,AU,2022-02-06 17:18:44,-33.65,115.3333,55.09,66,77,18.95
438,Rundu,NA,2022-02-06 17:32:47,-17.9333,19.7667,70.7,78,85,3.27
439,Madimba,TZ,2022-02-06 17:32:47,-10.4,40.3333,79.54,82,61,8.23
440,Cidreira,BR,2022-02-06 17:26:57,-30.1811,-50.2056,81.48,51,18,12.66
441,Corinto,GR,2022-02-06 17:32:48,37.9407,22.9573,56.89,71,87,4.41
442,Saint George,US,2022-02-06 17:23:24,37.1041,-113.5841,48.34,32,0,4.0
443,Saint-Pierre,RE,2022-02-06 17:32:48,-21.3393,55.4781,80.24,78,0,4.61
444,Jamestown,US,2022-02-06 17:29:04,42.097,-79.2353,31.51,40,0,5.01
445,Quatre Cocos,MU,2022-02-06 17:33:49,-20.2078,57.7625,79.09,82,58,10.67
446,Bielsko-Biala,PL,2022-02-06 17:33:49,49.8224,19.0469,40.08,82,99,18.68
447,Pisco,PE,2022-02-06 17:25:55,-13.7,-76.2167,71.02,83,40,9.22
448,Thompson,CA,2022-02-06 17:33:49,55.7435,-97.8558,-21.84,69,20,3.44
449,Mananjary,MG,2022-02-06 17:33:50,-21.2167,48.3333,78.67,92,100,12.46
450,Yurginskoye,RU,2022-02-06 17:33:50,56.8189,67.3921,4.93,86,100,7.18
451,Hermanus,ZA,2022-02-06 17:33:50,-34.4187,19.2345,71.91,88,6,7.72
452,Pangnirtung,CA,2022-02-06 17:22:10,66.1451,-65.7125,-31.0,61,40,2.3
453,Hermanus,ZA,2022-02-06 17:33:50,-34.4187,19.2345,71.91,88,6,7.72
454,Shache,CN,2022-02-06 17:33:51,38.4167,77.2406,32.72,57,100,4.5
455,Ushuaia,AR,2022-02-06 17:32:43,-54.8,-68.3,55.06,58,75,5.75
456,Umm Lajj,SA,2022-02-06 17:33:51,25.0213,37.2685,68.16,48,0,21.07
457,Rampur,IN,2022-02-06 17:33:52,28.8167,79.0333,52.03,68,7,3.67
458,Georgetown,MY,2022-02-06 17:21:14,5.4112,100.3354,77.95,94,40,0.0
459,Saint-Philippe,RE,2022-02-06 17:33:52,-21.3585,55.7679,80.15,80,96,15.08
460,Tubuala,PA,2022-02-06 17:33:52,9.5167,-79.0333,90.55,68,21,12.91
461,Dikson,RU,2022-02-06 17:28:04,73.5069,80.5464,-21.78,99,68,8.68
462,Vila Velha,BR,2022-02-06 17:32:44,-20.3297,-40.2925,87.75,74,20,11.01
463,Qaanaaq,GL,2022-02-06 17:29:18,77.484,-69.3632,-12.89,61,65,8.14
464,Opuwo,NA,2022-02-06 17:33:53,-18.0607,13.84,76.98,34,97,5.61
465,Busselton,AU,2022-02-06 17:32:57,-33.65,115.3333,55.09,66,71,16.82
466,Busselton,AU,2022-02-06 17:32:57,-33.65,115.3333,55.09,66,71,16.82
467,Emba,KZ,2022-02-06 17:33:53,48.8264,58.1442,17.29,95,100,11.56
468,Saint-Francois,FR,2022-02-06 17:33:53,46.4154,3.9054,47.64,66,100,12.66
469,Vilhena,BR,2022-02-06 17:33:54,-12.7406,-60.1458,84.42,58,75,4.61
470,Port Elizabeth,ZA,2022-02-06 17:32:52,-33.918,25.5701,79.11,83,20,13.8
471,Impfondo,CG,2022-02-06 17:33:54,1.6381,18.0667,81.18,25,96,0.54
472,Andenes,NO,2022-02-06 17:33:54,69.3143,16.1194,31.98,74,20,11.5
473,Saint-Philippe,RE,2022-02-06 17:33:52,-21.3585,55.7679,80.15,80,96,15.08
474,Ventspils,LV,2022-02-06 17:33:55,57.3894,21.5606,37.33,93,40,9.22
475,Maraa,BR,2022-02-06 17:33:55,-1.8333,-65.3667,82.42,69,100,5.79
476,Jamestown,US,2022-02-06 17:29:04,42.097,-79.2353,31.51,40,0,5.01
477,Bambous Virieux,MU,2022-02-06 17:25:48,-20.3428,57.7575,79.21,83,40,11.5
478,Turukhansk,RU,2022-02-06 17:33:56,65.8167,87.9833,-14.58,100,92,3.06
479,Puebloviejo,CO,2022-02-06 17:33:56,10.9938,-74.2844,89.8,58,20,6.91
480,Carnarvon,AU,2022-02-06 17:33:56,-24.8667,113.6333,75.27,69,40,18.41
481,Ancud,CL,2022-02-06 17:33:57,-41.8697,-73.8203,78.22,69,10,6.55
482,Vestmannaeyjar,IS,2022-02-06 17:33:57,63.4427,-20.2734,31.19,69,0,11.5
483,Doliana,GR,2022-02-06 17:33:57,39.9032,20.5794,50.92,89,52,2.91
484,Hithadhoo,MV,2022-02-06 17:25:51,-0.6,73.0833,82.83,70,25,11.3
485,Kruisfontein,ZA,2022-02-06 17:22:45,-34.0033,24.7314,76.89,67,64,10.22
486,Bredasdorp,ZA,2022-02-06 17:24:41,-34.5322,20.0403,74.52,60,25,8.05
487,Obidos,BR,2022-02-06 17:33:58,-1.9175,-55.5181,87.19,61,91,3.62
488,Saint George,US,2022-02-06 17:23:24,37.1041,-113.5841,48.34,32,0,4.0
489,Watertown,US,2022-02-06 17:30:00,42.3709,-71.1828,28.35,62,0,3.0
490,Bredasdorp,ZA,2022-02-06 17:24:41,-34.5322,20.0403,74.52,60,25,8.05
491,Hambantota,LK,2022-02-06 17:34:59,6.1241,81.1185,75.79,75,98,11.39
492,Richards Bay,ZA,2022-02-06 17:34:59,-28.783,32.0377,71.92,92,21,6.02
493,Touros,BR,2022-02-06 17:25:53,-5.1989,-35.4608,90.5,54,15,12.91
494,Carutapera,BR,2022-02-06 17:34:59,-1.195,-46.02,80.91,86,88,7.81
495,Bridlington,GB,2022-02-06 17:35:00,54.0831,-0.1919,41.18,68,93,31.43
496,Ilulissat,GL,2022-02-06 17:35:00,69.2167,-51.1,1.42,46,100,6.91
497,Qaanaaq,GL,2022-02-06 17:29:18,77.484,-69.3632,-12.89,61,65,8.14
498,Ribeira Grande,PT,2022-02-06 17:35:00,38.5167,-28.7,63.0,82,40,11.5
499,Hermanus,ZA,2022-02-06 17:33:50,-34.4187,19.2345,71.91,88,6,7.72
500,Mecca,SA,2022-02-06 17:33:14,21.4267,39.8261,69.44,36,0,7.99
501,Nosy Varika,MG,2022-02-06 17:30:22,-20.5833,48.5333,78.71,91,95,9.33
502,Marsh Harbour,BS,2022-02-06 17:35:01,26.5412,-77.0636,75.15,71,96,12.41
503,Qaanaaq,GL,2022-02-06 17:29:18,77.484,-69.3632,-12.89,61,65,8.14
504,East London,ZA,2022-02-06 17:34:02,-33.0153,27.9116,74.34,88,40,16.11
505,Arraial Do Cabo,BR,2022-02-06 17:35:02,-22.9661,-42.0278,91.36,58,0,18.41
506,Roald,NO,2022-02-06 17:29:17,62.5833,6.1333,39.99,65,75,13.8
507,Luderitz,NA,2022-02-06 17:34:12,-26.6481,15.1594,67.75,80,20,6.91
508,Hithadhoo,MV,2022-02-06 17:25:51,-0.6,73.0833,82.83,70,25,11.3
509,Beyla,GN,2022-02-06 17:35:02,8.6833,-8.6333,90.05,10,3,5.08
510,Port Alfred,ZA,2022-02-06 17:32:44,-33.5906,26.891,75.43,82,3,28.25
511,Georgetown,MY,2022-02-06 17:32:07,5.4112,100.3354,76.98,94,40,0.0
512,Timon,BR,2022-02-06 17:35:03,-5.0942,-42.8367,89.38,58,75,5.75
513,San Cristobal,VE,2022-02-06 17:28:07,7.7669,-72.225,68.18,53,87,4.41
514,Hermanus,ZA,2022-02-06 17:33:50,-34.4187,19.2345,71.91,88,6,7.72
515,Margate,GB,2022-02-06 17:35:03,51.3813,1.3862,49.69,71,64,11.01
516,Hermanus,ZA,2022-02-06 17:33:50,-34.4187,19.2345,71.91,88,6,7.72
517,Hermanus,ZA,2022-02-06 17:33:50,-34.4187,19.2345,71.91,88,6,7.72
518,Ancud,CL,2022-02-06 17:33:57,-41.8697,-73.8203,78.22,69,10,6.55
519,Trelleborg,SE,2022-02-06 17:35:04,55.3751,13.1569,37.94,85,100,16.67
520,Cape Town,ZA,2022-02-06 17:30:45,-33.9258,18.4232,74.88,53,0,1.01
521,Luderitz,NA,2022-02-06 17:34:12,-26.6481,15.1594,67.75,80,20,6.91
522,Umm Lajj,SA,2022-02-06 17:33:51,25.0213,37.2685,68.16,48,0,21.07
523,Hermanus,ZA,2022-02-06 17:33:50,-34.4187,19.2345,71.91,88,6,7.72
524,Bredasdorp,ZA,2022-02-06 17:35:04,-34.5322,20.0403,74.52,60,20,8.05
525,Hithadhoo,MV,2022-02-06 17:25:51,-0.6,73.0833,82.83,70,25,11.3
526,Ushuaia,AR,2022-02-06 17:32:43,-54.8,-68.3,55.06,58,75,5.75
527,Vila Do Maio,CV,2022-02-06 17:35:05,15.1333,-23.2167,81.39,79,0,13.38
528,Ribeira Grande,PT,2022-02-06 17:35:00,38.5167,-28.7,63.0,82,40,11.5
529,Kapelle,FR,2022-02-06 17:35:05,50.9998,2.3585,50.05,69,96,8.99
530,Jamestown,US,2022-02-06 17:29:04,42.097,-79.2353,31.51,40,0,5.01
531,Port Alfred,ZA,2022-02-06 17:32:44,-33.5906,26.891,75.43,82,3,28.25
532,Yanam,IN,2022-02-06 17:29:07,16.7333,82.2167,69.76,77,20,3.62
533,Saint-Philippe,RE,2022-02-06 17:33:52,-21.3585,55.7679,80.15,80,96,15.08
534,Otkaznoye,RU,2022-02-06 17:35:06,44.3264,43.8608,35.64,78,92,10.25
535,Itarema,BR,2022-02-06 17:35:06,-2.9248,-39.9167,85.86,61,26,14.2
536,Male,MV,2022-02-06 17:35:06,4.1748,73.5089,82.35,74,75,10.36
537,Georgetown,MY,2022-02-06 17:32:07,5.4112,100.3354,76.98,94,40,0.0
538,Upernavik,GL,2022-02-06 17:28:13,72.7868,-56.1549,-9.54,93,100,5.44
539,Hofn,IS,2022-02-06 17:25:47,64.2539,-15.2082,28.74,62,2,13.71
540,Dingle,PH,2022-02-06 17:27:02,10.9995,122.6711,74.84,88,49,8.12
541,Nokia,FI,2022-02-06 17:31:16,61.4667,23.5,32.68,94,75,8.05
542,Vardo,NO,2022-02-06 17:34:51,70.3705,31.1107,26.58,74,75,20.71
543,Saldanha,ZA,2022-02-06 17:32:56,-33.0117,17.9442,71.65,96,43,8.5
544,Poltavka,RU,2022-02-06 17:36:07,54.3663,71.7632,-0.45,91,41,6.67
545,Ribeira Grande,PT,2022-02-06 17:35:00,38.5167,-28.7,63.0,82,40,11.5
546,Cape Town,ZA,2022-02-06 17:30:45,-33.9258,18.4232,74.88,53,0,1.01
547,Bordighera,IT,2022-02-06 17:36:08,43.7806,7.6645,55.35,85,68,1.99
548,Ushuaia,AR,2022-02-06 17:32:43,-54.8,-68.3,55.06,58,75,5.75
549,Bambous Virieux,MU,2022-02-06 17:36:08,-20.3428,57.7575,79.21,83,40,11.5
550,Albany,US,2022-02-06 17:36:08,42.6001,-73.9662,27.63,47,16,3.0
551,Ostrovnoy,RU,2022-02-06 17:36:09,68.0531,39.5131,14.32,85,100,22.28
552,Bredasdorp,ZA,2022-02-06 17:35:04,-34.5322,20.0403,74.52,60,20,8.05
553,Punta Arenas,CL,2022-02-06 17:36:09,-53.15,-70.9167,69.91,46,75,17.27
554,Iqaluit,CA,2022-02-06 17:28:10,63.7506,-68.5145,-32.31,66,20,4.0
555,San Cristobal,VE,2022-02-06 17:28:07,7.7669,-72.225,68.18,53,87,4.41
556,Upernavik,GL,2022-02-06 17:28:13,72.7868,-56.1549,-9.54,93,100,5.44
557,Busselton,AU,2022-02-06 17:32:57,-33.65,115.3333,55.09,66,71,16.82
558,Carnarvon,AU,2022-02-06 17:33:56,-24.8667,113.6333,75.27,69,40,18.41
559,Port Alfred,ZA,2022-02-06 17:32:44,-33.5906,26.891,75.43,82,3,28.25
560,Saldanha,ZA,2022-02-06 17:32:56,-33.0117,17.9442,71.65,96,43,8.5
561,Nicoya,CR,2022-02-06 17:36:10,10.1483,-85.452,85.55,35,5,11.81
562,Quatre Cocos,MU,2022-02-06 17:33:49,-20.2078,57.7625,79.09,82,58,10.67
563,Bredasdorp,ZA,2022-02-06 17:35:04,-34.5322,20.0403,74.52,60,20,8.05
564,Faya,SA,2022-02-06 17:24:53,18.3851,42.4509,55.51,70,5,4.29
565,Busselton,AU,2022-02-06 17:32:57,-33.65,115.3333,55.09,66,71,16.82
566,Viedma,AR,2022-02-06 17:36:11,-40.8135,-62.9967,74.28,30,13,7.05
567,Sosnovoborsk,RU,2022-02-06 17:36:11,56.1325,93.3589,22.55,95,100,3.44
568,Ushuaia,AR,2022-02-06 17:32:43,-54.8,-68.3,55.06,58,75,5.75
569,Hofn,IS,2022-02-06 17:25:47,64.2539,-15.2082,28.74,62,2,13.71
570,Mar Del Plata,AR,2022-02-06 17:35:18,-38.0023,-57.5575,66.22,89,100,24.0
571,Georgetown,MY,2022-02-06 17:32:07,5.4112,100.3354,76.98,94,40,0.0
572,Upernavik,GL,2022-02-06 17:28:13,72.7868,-56.1549,-9.54,93,100,5.44
573,Upernavik,GL,2022-02-06 17:28:13,72.7868,-56.1549,-9.54,93,100,5.44
574,Salamanca,ES,2022-02-06 17:36:12,40.8333,-6.0,47.98,55,58,6.8
575,East London,ZA,2022-02-06 17:34:02,-33.0153,27.9116,74.34,88,40,16.11
576,Maroantsetra,MG,2022-02-06 17:36:12,-15.4333,49.7333,79.86,83,82,2.06
577,Necochea,AR,2022-02-06 17:28:48,-38.5473,-58.7368,64.04,74,95,19.86
578,Llanes,ES,2022-02-06 17:36:13,43.4198,-4.7549,52.9,73,86,8.21
579,Busselton,AU,2022-02-06 17:32:57,-33.65,115.3333,55.09,66,71,16.82
580,Port Elizabeth,ZA,2022-02-06 17:32:52,-33.918,25.5701,79.11,83,20,13.8
581,Clyde River,CA,2022-02-06 17:36:13,70.4692,-68.5914,-32.57,68,0,5.75
582,Walvis Bay,NA,2022-02-06 17:36:14,-22.9575,14.5053,76.15,60,36,9.22
583,Ushuaia,AR,2022-02-06 17:32:43,-54.8,-68.3,55.06,58,75,5.75
584,Dikson,RU,2022-02-06 17:28:04,73.5069,80.5464,-21.78,99,68,8.68
585,Orito,CO,2022-02-06 17:37:14,0.6766,-76.8771,81.99,84,94,2.64
586,Mali,GN,2022-02-06 17:37:15,12.079,-12.2982,87.12,8,6,4.79
587,Ushuaia,AR,2022-02-06 17:32:43,-54.8,-68.3,55.06,58,75,5.75
588,Tirumala,IN,2022-02-06 17:37:15,13.6833,79.35,61.07,93,100,3.0
589,East London,ZA,2022-02-06 17:34:02,-33.0153,27.9116,74.34,88,40,16.11
590,Port Elizabeth,ZA,2022-02-06 17:32:52,-33.918,25.5701,79.11,83,20,13.8
591,Longyearbyen,SJ,2022-02-06 17:32:42,78.2186,15.6401,19.24,63,40,12.66
592,Shahr-E Babak,IR,2022-02-06 17:37:16,30.1165,55.1186,42.17,35,0,2.1
593,Nesterov,RU,2022-02-06 17:37:16,54.6306,22.5714,36.01,97,100,14.25
594,Cape Town,ZA,2022-02-06 17:30:45,-33.9258,18.4232,74.88,53,0,1.01
595,Longyearbyen,SJ,2022-02-06 17:32:42,78.2186,15.6401,19.24,63,40,12.66
596,Ushuaia,AR,2022-02-06 17:32:43,-54.8,-68.3,55.06,58,75,5.75
597,Kotma,IN,2022-02-06 17:37:16,23.2,81.9667,55.54,32,0,2.04
598,Jamestown,US,2022-02-06 17:29:04,42.097,-79.2353,31.51,40,0,5.01
599,Zheleznodorozhnyy,RU,2022-02-06 17:37:17,55.7503,38.0042,23.22,99,96,3.51
600,Mar Del Plata,AR,2022-02-06 17:35:18,-38.0023,-57.5575,66.22,89,100,24.0
601,Hermanus,ZA,2022-02-06 17:33:50,-34.4187,19.2345,71.91,88,6,7.72
602,Luderitz,NA,2022-02-06 17:34:12,-26.6481,15.1594,67.75,80,20,6.91
603,Tasiilaq,GL,2022-02-06 17:32:41,65.6145,-37.6368,23.16,60,100,30.91
604,Mponela,MW,2022-02-06 17:37:18,-13.5319,33.7401,62.96,98,88,3.2
605,Ponta Do Sol,PT,2022-02-06 17:37:18,32.6667,-17.1,66.13,51,10,11.12
606,Vallenar,CL,2022-02-06 17:37:18,-28.5708,-70.7581,88.39,21,0,11.86
607,Conakry,GN,2022-02-06 17:37:19,9.538,-13.6773,87.87,55,6,11.5
608,High Rock,BS,2022-02-06 17:37:19,26.6208,-78.2833,78.82,73,46,10.89
609,Castro,BR,2022-02-06 17:37:19,-24.7911,-50.0119,76.42,73,75,7.65
610,Bambous Virieux,MU,2022-02-06 17:36:08,-20.3428,57.7575,79.21,83,40,11.5
611,Shelburne,CA,2022-02-06 17:35:50,44.0787,-80.2041,26.67,79,85,18.81
612,Yarada,IN,2022-02-06 17:34:43,17.65,83.2667,70.12,83,20,2.3
613,Cape Town,ZA,2022-02-06 17:30:45,-33.9258,18.4232,74.88,53,0,1.01
614,Jamestown,US,2022-02-06 17:29:04,42.097,-79.2353,31.51,40,0,5.01
615,Ormara,PK,2022-02-06 17:37:20,25.2088,64.6357,71.71,75,0,11.45
616,Punta Arenas,CL,2022-02-06 17:36:09,-53.15,-70.9167,69.91,46,75,17.27
617,Upernavik,GL,2022-02-06 17:28:13,72.7868,-56.1549,-9.54,93,100,5.44
618,Ushuaia,AR,2022-02-06 17:32:43,-54.8,-68.3,55.06,58,75,5.75
619,Dhidhdhoo,MV,2022-02-06 17:37:21,6.8833,73.1,81.07,65,90,7.96
620,Vila Franca Do Campo,PT,2022-02-06 17:37:21,37.7167,-25.4333,64.2,86,74,13.58
621,Salamiyah,SY,2022-02-06 17:37:22,35.0113,37.0532,48.63,91,92,10.04
622,Ushuaia,AR,2022-02-06 17:32:43,-54.8,-68.3,55.06,58,75,5.75
623,Aberystwyth,GB,2022-02-06 17:37:22,52.4155,-4.0829,44.89,76,100,28.45
624,Dasoguz,TM,2022-02-06 17:37:22,41.8363,59.9666,33.91,86,75,6.91
625,Kongoussi,BF,2022-02-06 17:37:23,13.3258,-1.5347,82.44,10,0,6.04
626,Sao Geraldo Do Araguaia,BR,2022-02-06 17:37:23,-6.4006,-48.555,85.17,74,91,0.81
627,Dikson,RU,2022-02-06 17:28:04,73.5069,80.5464,-21.78,99,68,8.68
628,Ushuaia,AR,2022-02-06 17:32:43,-54.8,-68.3,55.06,58,75,5.75
629,Mar Del Plata,AR,2022-02-06 17:35:18,-38.0023,-57.5575,66.22,89,100,24.0
630,Anloga,GH,2022-02-06 17:38:24,5.7947,0.8973,86.22,75,92,12.84
631,Orshanka,RU,2022-02-06 17:38:24,56.9161,47.8933,11.32,99,100,3.56
632,Ushuaia,AR,2022-02-06 17:32:43,-54.8,-68.3,55.06,58,75,5.75
633,Luena,AO,2022-02-06 17:38:24,-11.7833,19.9167,65.16,78,100,4.85
634,Port Elizabeth,ZA,2022-02-06 17:32:52,-33.918,25.5701,79.11,83,20,13.8
635,Bambous Virieux,MU,2022-02-06 17:36:08,-20.3428,57.7575,79.21,83,40,11.5
636,Amapa,BR,2022-02-06 17:38:25,1.0,-52.0,74.8,98,95,2.64
637,East London,ZA,2022-02-06 17:34:02,-33.0153,27.9116,74.34,88,40,16.11
638,Caravelas,BR,2022-02-06 17:38:25,-17.7125,-39.2481,85.17,59,0,10.74
639,Fuerte Olimpo,PY,2022-02-06 17:38:26,-21.0415,-57.8738,87.48,46,100,9.24
640,Otjimbingwe,NA,2022-02-06 17:38:26,-22.35,16.1333,72.66,79,98,4.16
641,Longyearbyen,SJ,2022-02-06 17:32:42,78.2186,15.6401,19.24,63,40,12.66
642,Bay Saint Louis,US,2022-02-06 17:37:08,30.3088,-89.33,54.07,37,0,3.44
643,Georgetown,MY,2022-02-06 17:32:07,5.4112,100.3354,76.98,94,40,0.0
644,Mahebourg,MU,2022-02-06 17:38:05,-20.4081,57.7,79.25,83,40,11.5
645,Snasa,NO,2022-02-06 17:38:27,64.2457,12.3778,35.01,96,100,4.65
646,Jamestown,US,2022-02-06 17:29:04,42.097,-79.2353,31.51,40,0,5.01
647,Dikson,RU,2022-02-06 17:37:40,73.5069,80.5464,-21.28,99,68,9.66
648,Sao Gabriel Da Cachoeira,BR,2022-02-06 17:38:27,-0.1303,-67.0892,84.0,74,40,5.75
649,Touros,BR,2022-02-06 17:38:27,-5.1989,-35.4608,90.5,56,13,12.93
650,Calamar,CO,2022-02-06 17:38:28,10.2511,-74.9146,85.95,31,1,6.04
651,Basoko,CD,2022-02-06 17:38:28,1.2391,23.616,81.7,41,76,2.82
652,Jamestown,US,2022-02-06 17:29:04,42.097,-79.2353,31.51,40,0,5.01
653,Port Alfred,ZA,2022-02-06 17:32:44,-33.5906,26.891,75.43,82,3,28.25
654,East London,ZA,2022-02-06 17:34:02,-33.0153,27.9116,74.34,88,40,16.11
655,Souillac,MU,2022-02-06 17:38:29,-20.5167,57.5167,79.36,83,40,11.5
656,Jamestown,US,2022-02-06 17:29:04,42.097,-79.2353,31.51,40,0,5.01
657,Arroyos Y Esteros,PY,2022-02-06 17:38:29,-25.0667,-57.1,86.2,37,1,9.91
658,Altay,CN,2022-02-06 17:38:29,47.8667,88.1167,8.49,47,3,10.11
659,Cape Town,ZA,2022-02-06 17:30:45,-33.9258,18.4232,74.88,53,0,1.01
660,Manali,IN,2022-02-06 17:38:30,13.1667,80.2667,81.07,75,96,8.99
661,Porto Walter,BR,2022-02-06 17:38:30,-8.2686,-72.7439,87.24,55,100,5.59
662,Klaksvik,FO,2022-02-06 17:29:14,62.2266,-6.589,36.52,61,87,37.51
663,Antofagasta,CL,2022-02-06 17:34:01,-23.65,-70.4,74.21,59,1,8.48
664,Ambilobe,MG,2022-02-06 17:38:31,-13.2,49.05,75.72,92,32,3.06
665,Tasiilaq,GL,2022-02-06 17:32:41,65.6145,-37.6368,23.16,60,100,30.91
666,Mar Del Plata,AR,2022-02-06 17:35:18,-38.0023,-57.5575,66.22,89,100,24.0
667,Hithadhoo,MV,2022-02-06 17:38:31,-0.6,73.0833,82.69,71,24,11.95
668,Ushuaia,AR,2022-02-06 17:32:43,-54.8,-68.3,55.06,58,75,5.75
669,Derzhavinsk,KZ,2022-02-06 17:38:32,51.1,66.3167,15.89,82,95,12.03
670,Lagoa,PT,2022-02-06 17:38:32,39.05,-27.9833,60.53,83,5,11.59
671,Saint George,US,2022-02-06 17:36:07,37.1041,-113.5841,48.43,30,0,3.0
672,Suleja,NG,2022-02-06 17:39:33,9.1758,7.1808,90.59,14,0,2.13
673,Tasiilaq,GL,2022-02-06 17:32:41,65.6145,-37.6368,23.16,60,100,30.91
674,Coihaique,CL,2022-02-06 17:35:22,-45.5752,-72.0662,77.61,39,9,4.68
675,Saint-Pierre,RE,2022-02-06 17:32:48,-21.3393,55.4781,80.24,78,0,4.61
676,Soyo,AO,2022-02-06 17:39:33,-6.1349,12.3689,80.65,82,28,10.58
677,Sept-Iles,CA,2022-02-06 17:39:34,50.2001,-66.3821,3.06,57,20,5.01
678,Ushuaia,AR,2022-02-06 17:32:43,-54.8,-68.3,55.06,58,75,5.75
679,Muhos,FI,2022-02-06 17:39:34,64.808,25.9931,28.18,92,98,13.98
680,Saint-Pierre,RE,2022-02-06 17:32:48,-21.3393,55.4781,80.24,78,0,4.61
681,Nanortalik,GL,2022-02-06 17:39:35,60.1432,-45.2371,13.86,75,100,20.07
682,East London,ZA,2022-02-06 17:34:02,-33.0153,27.9116,74.34,88,40,16.11
683,Mirador,BR,2022-02-06 17:39:35,-6.3708,-44.3631,82.71,80,96,3.31
684,Itarema,BR,2022-02-06 17:35:06,-2.9248,-39.9167,85.86,61,26,14.2
685,Port Elizabeth,ZA,2022-02-06 17:32:52,-33.918,25.5701,79.11,83,20,13.8
686,Chandur,IN,2022-02-06 17:39:36,19.7333,79.1833,68.11,21,6,1.23
687,Mar Del Plata,AR,2022-02-06 17:35:18,-38.0023,-57.5575,66.22,89,100,24.0
688,Cape Town,ZA,2022-02-06 17:30:45,-33.9258,18.4232,74.88,53,0,1.01
689,Sao Jose Da Coroa Grande,BR,2022-02-06 17:39:36,-8.8978,-35.1478,84.81,59,80,12.86
690,Ereymentau,KZ,2022-02-06 17:39:36,51.6199,73.1033,5.65,70,6,6.76
691,Busselton,AU,2022-02-06 17:32:57,-33.65,115.3333,55.09,66,71,16.82
692,Sibut,CF,2022-02-06 17:39:37,5.718,19.0739,83.07,19,97,1.36
693,Codrington,AU,2022-02-06 17:39:37,-38.2667,141.9667,59.27,73,0,9.89
694,Zambezi,ZM,2022-02-06 17:39:37,-13.5432,23.1047,65.43,95,92,2.75
695,Qaanaaq,GL,2022-02-06 17:39:38,77.484,-69.3632,-12.69,58,59,8.19
696,Vieste,IT,2022-02-06 17:39:38,41.8825,16.175,52.3,81,1,11.45
697,Ushuaia,AR,2022-02-06 17:32:43,-54.8,-68.3,55.06,58,75,5.75
698,Lodja,CD,2022-02-06 17:39:39,-3.4833,23.4333,74.19,81,94,1.61
699,Sao Felix Do Xingu,BR,2022-02-06 17:39:39,-6.6447,-51.995,84.43,70,99,4.14
700,Konya,TR,2022-02-06 17:39:40,38.1667,32.5,26.08,76,6,3.49
701,Ushuaia,AR,2022-02-06 17:32:43,-54.8,-68.3,55.06,58,75,5.75
702,Cajabamba,PE,2022-02-06 17:39:40,-7.6167,-78.05,62.37,63,100,3.76
703,Simpsonville,US,2022-02-06 17:39:41,34.7371,-82.2543,42.84,44,0,1.99
704,Ous,RU,2022-02-06 17:39:41,60.9058,61.5186,11.79,95,100,5.95
705,Ushuaia,AR,2022-02-06 17:32:43,-54.8,-68.3,55.06,58,75,5.75
706,Coquimbo,CL,2022-02-06 17:35:16,-29.9533,-71.3436,67.73,72,20,12.66
707,Skjervoy,NO,2022-02-06 17:39:42,70.0311,20.9714,28.4,70,40,19.35
708,Antalaha,MG,2022-02-06 17:39:42,-14.9003,50.2788,79.2,80,69,3.98
709,Seredeyskiy,RU,2022-02-06 17:39:43,54.0507,35.2318,29.21,96,89,8.7
710,Berlevag,NO,2022-02-06 17:32:45,70.8578,29.0864,24.8,85,57,19.57
711,Ushuaia,AR,2022-02-06 17:32:43,-54.8,-68.3,55.06,58,75,5.75
712,Uyemskiy,RU,2022-02-06 17:39:43,64.4743,40.8524,10.45,85,40,6.71
713,Saint-Philippe,RE,2022-02-06 17:33:52,-21.3585,55.7679,80.15,80,96,15.08
714,Punta Arenas,CL,2022-02-06 17:36:09,-53.15,-70.9167,69.91,46,75,17.27
715,Caraballeda,VE,2022-02-06 17:39:44,10.6112,-66.8522,88.38,56,40,8.05
716,Vardo,NO,2022-02-06 17:34:51,70.3705,31.1107,26.58,74,75,20.71
717,Vieques,PR,2022-02-06 17:40:44,18.425,-65.8329,80.67,88,75,9.22
718,Pangody,RU,2022-02-06 17:40:45,65.85,74.4859,-20.65,100,67,3.18
719,Jalu,LY,2022-02-06 17:40:45,29.0331,21.5482,62.73,26,5,5.55
720,Vilnius,LT,2022-02-06 17:36:10,54.6892,25.2798,34.68,100,100,16.11
721,Port Alfred,ZA,2022-02-06 17:32:44,-33.5906,26.891,75.43,82,3,28.25
722,Verkhoshizhemye,RU,2022-02-06 17:40:46,58.011,49.1038,15.28,98,100,1.86
723,Beoumi,CI,2022-02-06 17:40:46,7.6736,-5.5764,96.58,18,10,2.77
724,Cape Town,ZA,2022-02-06 17:30:45,-33.9258,18.4232,74.88,53,0,1.01
725,Torbay,CA,2022-02-06 17:40:46,47.6666,-52.7314,17.58,83,100,17.27
726,Punta Arenas,CL,2022-02-06 17:36:09,-53.15,-70.9167,69.91,46,75,17.27
727,Hithadhoo,MV,2022-02-06 17:38:31,-0.6,73.0833,82.69,71,24,11.95
728,Ushuaia,AR,2022-02-06 17:32:43,-54.8,-68.3,55.06,58,75,5.75
729,Los Llanos De Aridane,ES,2022-02-06 17:38:31,28.6585,-17.9182,66.13,65,20,15.99
730,Souillac,MU,2022-02-06 17:38:29,-20.5167,57.5167,79.36,83,40,11.5
731,Mehamn,NO,2022-02-06 17:40:47,71.0357,27.8492,30.38,80,0,34.52
732,Tasiilaq,GL,2022-02-06 17:32:41,65.6145,-37.6368,23.16,60,100,30.91
733,Vila Franca Do Campo,PT,2022-02-06 17:37:21,37.7167,-25.4333,64.2,86,74,13.58
734,Esik,KZ,2022-02-06 17:40:48,43.3552,77.4525,31.42,70,100,5.64
735,Bonavista,CA,2022-02-06 17:40:49,48.6499,-53.1147,17.11,65,100,24.18
736,Upernavik,GL,2022-02-06 17:40:49,72.7868,-56.1549,-12.51,93,99,5.91
737,Busselton,AU,2022-02-06 17:32:57,-33.65,115.3333,55.09,66,71,16.82
738,Bredasdorp,ZA,2022-02-06 17:35:04,-34.5322,20.0403,74.52,60,20,8.05
739,Busselton,AU,2022-02-06 17:32:57,-33.65,115.3333,55.09,66,71,16.82
740,Saldanha,ZA,2022-02-06 17:32:56,-33.0117,17.9442,71.65,96,43,8.5
741,Saint-Philippe,RE,2022-02-06 17:33:52,-21.3585,55.7679,80.15,80,96,15.08
742,Conversano,IT,2022-02-06 17:40:50,40.9662,17.1148,52.86,80,25,9.8
743,Hithadhoo,MV,2022-02-06 17:38:31,-0.6,73.0833,82.69,71,24,11.95
744,Copiapo,CL,2022-02-06 17:40:50,-27.3667,-70.3333,73.09,30,0,11.92
745,Ushuaia,AR,2022-02-06 17:32:43,-54.8,-68.3,55.06,58,75,5.75
746,Vila Franca Do Campo,PT,2022-02-06 17:37:21,37.7167,-25.4333,64.2,86,74,13.58
747,Urumqi,CN,2022-02-06 17:32:40,43.801,87.6005,-1.25,78,6,0.0
748,Asaba,NG,2022-02-06 17:40:51,6.2006,6.7338,88.16,15,1,1.34
749,Iqaluit,CA,2022-02-06 17:40:51,63.7506,-68.5145,-32.31,66,20,4.0
750,Muyezerskiy,RU,2022-02-06 17:40:51,63.9333,31.65,20.82,92,100,13.02
751,Maniitsoq,GL,2022-02-06 17:40:52,65.4167,-52.9,4.23,75,100,15.82
752,Irbil,IQ,2022-02-06 17:40:52,36.1926,44.0106,40.82,65,20,4.61
753,Victoria,HK,2022-02-06 17:38:57,22.2855,114.1577,62.26,84,100,1.99
754,Longyearbyen,SJ,2022-02-06 17:32:42,78.2186,15.6401,19.24,63,40,12.66
755,Ponta Do Sol,PT,2022-02-06 17:37:18,32.6667,-17.1,66.13,51,10,11.12
756,Codrington,AU,2022-02-06 17:39:37,-38.2667,141.9667,59.27,73,0,9.89
757,Gonen,TR,2022-02-06 17:40:53,40.1049,27.654,47.01,39,0,3.42
758,Mahebourg,MU,2022-02-06 17:38:05,-20.4081,57.7,79.25,83,40,11.5
759,Ushuaia,AR,2022-02-06 17:32:43,-54.8,-68.3,55.06,58,75,5.75
760,Lunenburg,CA,2022-02-06 17:40:53,44.3835,-64.3155,21.2,62,4,6.17
761,Henties Bay,NA,2022-02-06 17:40:53,-22.116,14.2845,70.86,81,85,8.43
762,Sao Joao Da Barra,BR,2022-02-06 17:40:54,-21.6403,-41.0511,87.89,79,6,15.28
763,Peranamallur,IN,2022-02-06 17:40:54,12.5667,79.4333,71.01,83,96,5.64
764,Kavaratti,IN,2022-02-06 17:41:55,10.5669,72.642,78.24,67,44,9.55
765,Jamestown,US,2022-02-06 17:29:04,42.097,-79.2353,31.51,40,0,5.01
766,Torbay,CA,2022-02-06 17:40:46,47.6666,-52.7314,17.58,83,100,17.27
767,Krasnoselkup,RU,2022-02-06 17:41:55,65.7,82.4667,-19.62,100,37,7.47
768,Januaria,BR,2022-02-06 17:41:56,-15.4833,-44.3667,70.5,96,100,0.63
769,Wlodawa,PL,2022-02-06 17:40:19,51.55,23.55,35.91,97,100,15.28
770,Bambous Virieux,MU,2022-02-06 17:36:08,-20.3428,57.7575,79.21,83,40,11.5
771,Rawson,AR,2022-02-06 17:41:56,-43.3002,-65.1023,82.69,21,0,9.22
772,Saint George,US,2022-02-06 17:36:07,37.1041,-113.5841,48.43,30,0,3.0
773,Busselton,AU,2022-02-06 17:32:57,-33.65,115.3333,55.09,66,71,16.82
774,Gilbues,BR,2022-02-06 17:41:57,-9.8317,-45.3439,88.97,44,98,6.06
775,Zavyalovo,RU,2022-02-06 17:41:57,54.5053,82.4484,-0.2,88,62,2.35
776,Omboue,GA,2022-02-06 17:41:57,-1.5746,9.2618,79.32,82,45,5.84
777,Olafsvik,IS,2022-02-06 17:37:09,64.8945,-23.7142,28.18,70,86,16.71
778,Lagoa,PT,2022-02-06 17:38:32,39.05,-27.9833,60.53,83,5,11.59
779,Hambantota,LK,2022-02-06 17:34:59,6.1241,81.1185,75.79,75,98,11.39
780,Iqaluit,CA,2022-02-06 17:40:51,63.7506,-68.5145,-32.31,66,20,4.0
781,Inta,RU,2022-02-06 17:41:58,66.0317,60.1659,-5.21,95,83,4.74
782,Hermanus,ZA,2022-02-06 17:33:50,-34.4187,19.2345,71.91,88,6,7.72
783,Chongwe,ZM,2022-02-06 17:41:58,-15.3292,28.682,61.59,98,95,3.04
784,Hithadhoo,MV,2022-02-06 17:38:31,-0.6,73.0833,82.69,71,24,11.95
785,Mar Del Plata,AR,2022-02-06 17:35:18,-38.0023,-57.5575,66.22,89,100,24.0
786,Malumfashi,NG,2022-02-06 17:41:59,11.7853,7.6218,72.54,17,0,9.8
787,Cockburn Town,TC,2022-02-06 17:41:59,21.4612,-71.1419,78.76,47,40,10.36
788,Margate,GB,2022-02-06 17:35:03,51.3813,1.3862,49.69,71,64,11.01
789,Sao Filipe,CV,2022-02-06 17:42:00,14.8961,-24.4956,74.66,68,0,10.2
790,Tasiilaq,GL,2022-02-06 17:32:41,65.6145,-37.6368,23.16,60,100,30.91
791,Saint-Philippe,RE,2022-02-06 17:33:52,-21.3585,55.7679,80.15,80,96,15.08
792,Port Blair,IN,2022-02-06 17:42:00,11.6667,92.75,80.64,83,20,8.05
793,Mar Del Plata,AR,2022-02-06 17:35:18,-38.0023,-57.5575,66.22,89,100,24.0
794,Lebu,CL,2022-02-06 17:42:01,-37.6167,-73.65,66.96,63,0,13.8
795,Klaksvik,FO,2022-02-06 17:42:01,62.2266,-6.589,36.52,60,88,36.8
796,Krasnoselkup,RU,2022-02-06 17:41:55,65.7,82.4667,-19.62,100,37,7.47
797,Venado Tuerto,AR,2022-02-06 17:42:01,-33.7456,-61.9688,75.78,33,0,12.71
798,San Cristobal,VE,2022-02-06 17:42:02,7.7669,-72.225,68.18,50,84,4.52
799,Hermanus,ZA,2022-02-06 17:33:50,-34.4187,19.2345,71.91,88,6,7.72
800,Ushuaia,AR,2022-02-06 17:32:43,-54.8,-68.3,55.06,58,75,5.75
801,Mahebourg,MU,2022-02-06 17:38:05,-20.4081,57.7,79.25,83,40,11.5
802,Mar Del Plata,AR,2022-02-06 17:35:18,-38.0023,-57.5575,66.22,89,100,24.0
803,Hermanus,ZA,2022-02-06 17:33:50,-34.4187,19.2345,71.91,88,6,7.72
804,Ushuaia,AR,2022-02-06 17:32:43,-54.8,-68.3,55.06,58,75,5.75
805,Port Elizabeth,ZA,2022-02-06 17:32:52,-33.918,25.5701,79.11,83,20,13.8
806,Marzuq,YE,2022-02-06 17:42:03,14.4,46.4667,67.3,35,43,2.26
807,Bredasdorp,ZA,2022-02-06 17:35:04,-34.5322,20.0403,74.52,60,20,8.05
808,Elizabeth City,US,2022-02-06 17:37:56,36.2946,-76.2511,42.06,79,100,13.8
809,Bambous Virieux,MU,2022-02-06 17:36:08,-20.3428,57.7575,79.21,83,40,11.5
810,Ribeira Grande,PT,2022-02-06 17:35:00,38.5167,-28.7,63.0,82,40,11.5
811,Male,MV,2022-02-06 17:35:06,4.1748,73.5089,82.35,74,75,10.36
812,Port Elizabeth,ZA,2022-02-06 17:32:52,-33.918,25.5701,79.11,83,20,13.8
813,Bafq,IR,2022-02-06 17:43:04,31.6128,55.4107,50.92,22,0,4.56
814,Dedza,MW,2022-02-06 17:43:04,-14.3779,34.3332,57.16,95,24,2.59
815,Touros,BR,2022-02-06 17:38:27,-5.1989,-35.4608,90.5,56,13,12.93
816,Boardman,US,2022-02-06 17:41:58,41.0242,-80.6628,33.89,67,26,1.01
817,Narsaq,GL,2022-02-06 17:43:05,60.9167,-46.05,8.82,65,100,2.15
818,Mandawar,IN,2022-02-06 17:43:05,29.5,78.1333,53.51,67,75,4.38
819,Najran,SA,2022-02-06 17:43:05,17.4924,44.1277,63.25,36,4,5.39
820,Nanortalik,GL,2022-02-06 17:39:35,60.1432,-45.2371,13.86,75,100,20.07
821,Normandin,CA,2022-02-06 17:43:06,48.8333,-72.5321,1.71,70,100,2.3
822,Iluppur,IN,2022-02-06 17:43:06,10.5135,78.6236,78.15,77,100,6.91
823,Punta Arenas,CL,2022-02-06 17:36:09,-53.15,-70.9167,69.91,46,75,17.27
824,Tiznit,MA,2022-02-06 17:43:07,29.5833,-9.5,67.62,32,15,5.08
825,Castro,BR,2022-02-06 17:37:19,-24.7911,-50.0119,76.42,73,75,7.65
826,Ponta Do Sol,PT,2022-02-06 17:37:18,32.6667,-17.1,66.13,51,10,11.12
827,Ushuaia,AR,2022-02-06 17:43:07,-54.8,-68.3,55.06,58,75,5.75
828,Ushuaia,AR,2022-02-06 17:43:07,-54.8,-68.3,55.06,58,75,5.75
829,Sorland,NO,2022-02-06 17:43:08,67.667,12.6934,35.46,61,100,16.64
830,Tasiilaq,GL,2022-02-06 17:43:08,65.6145,-37.6368,23.16,60,100,30.91
831,Falciu,RO,2022-02-06 17:43:08,46.2961,28.1408,40.28,55,77,8.37
832,Malinovoye Ozero,RU,2022-02-06 17:43:09,51.6753,79.7825,-3.64,93,10,4.61
833,Kasongo-Lunda,CD,2022-02-06 17:43:09,-6.4667,16.8167,71.46,95,92,2.37
834,Gilbues,BR,2022-02-06 17:41:57,-9.8317,-45.3439,88.97,44,98,6.06
835,Westport,US,2022-02-06 17:43:10,41.1415,-73.3579,30.29,61,72,1.01
836,Nagod,IN,2022-02-06 17:43:10,24.5667,80.6,55.31,44,0,4.5
837,Quisqueya,DO,2022-02-06 17:43:10,18.5554,-69.4081,82.29,76,87,11.05
838,Turayf,SA,2022-02-06 17:43:11,31.6725,38.6637,48.45,66,40,4.61
839,Touros,BR,2022-02-06 17:38:27,-5.1989,-35.4608,90.5,56,13,12.93
840,Albany,US,2022-02-06 17:36:08,42.6001,-73.9662,27.63,47,16,3.0
841,Jamestown,US,2022-02-06 17:43:06,42.097,-79.2353,32.02,39,0,7.0
842,Scarborough,GB,2022-02-06 17:43:11,54.2797,-0.4044,40.51,81,96,4.0
843,Sao Filipe,CV,2022-02-06 17:42:00,14.8961,-24.4956,74.66,68,0,10.2
844,Arraial Do Cabo,BR,2022-02-06 17:35:02,-22.9661,-42.0278,91.36,58,0,18.41
845,Mao,ES,2022-02-06 17:43:12,39.8885,4.2658,50.56,76,0,0.0
846,Bilma,NE,2022-02-06 17:43:12,18.6853,12.9164,67.66,13,0,9.04
847,Camana,PE,2022-02-06 17:43:13,-16.6228,-72.7111,75.15,68,55,7.78
848,Huarmey,PE,2022-02-06 17:43:13,-10.0681,-78.1522,75.63,70,55,11.05
849,Port Elizabeth,ZA,2022-02-06 17:32:52,-33.918,25.5701,79.11,83,20,13.8
850,Jamestown,US,2022-02-06 17:43:06,42.097,-79.2353,32.02,39,0,7.0
851,Castro,BR,2022-02-06 17:37:19,-24.7911,-50.0119,76.42,73,75,7.65
852,Port Elizabeth,ZA,2022-02-06 17:32:52,-33.918,25.5701,79.11,83,20,13.8
853,Havoysund,NO,2022-02-06 17:43:14,70.9963,24.6622,30.43,73,26,29.46
854,Jamestown,US,2022-02-06 17:43:06,42.097,-79.2353,32.02,39,0,7.0
855,Pimentel,PE,2022-02-06 17:43:14,-6.8367,-79.9342,77.29,61,75,11.5
856,Cape Town,ZA,2022-02-06 17:44:15,-33.9258,18.4232,73.89,66,0,1.01
857,Ushuaia,AR,2022-02-06 17:43:07,-54.8,-68.3,55.06,58,75,5.75
858,Port Shepstone,ZA,2022-02-06 17:44:15,-30.7414,30.455,74.68,83,93,13.98
859,Masallatah,LY,2022-02-06 17:44:15,32.6167,14.0,56.93,75,94,6.96
860,Kautokeino,NO,2022-02-06 17:44:16,69.0125,23.0412,18.32,94,100,12.84
861,Bathsheba,BB,2022-02-06 17:44:16,13.2167,-59.5167,84.81,61,40,18.41
862,Ponta Do Sol,PT,2022-02-06 17:37:18,32.6667,-17.1,66.13,51,10,11.12
863,Dikson,RU,2022-02-06 17:37:40,73.5069,80.5464,-21.28,99,68,9.66
864,Diu,IN,2022-02-06 17:44:17,20.7141,70.9822,65.34,71,6,9.55
865,Lagos,NG,2022-02-06 17:39:31,6.5833,3.75,88.12,74,26,7.11
866,Cap Malheureux,MU,2022-02-06 17:44:17,-19.9842,57.6142,79.47,81,56,5.01
867,Albany,US,2022-02-06 17:36:08,42.6001,-73.9662,27.63,47,16,3.0
868,Puri,IN,2022-02-06 17:44:17,19.8,85.85,64.92,51,36,5.93
869,Isiro,CD,2022-02-06 17:44:18,2.7739,27.616,70.68,32,87,2.55
870,Jamestown,US,2022-02-06 17:43:06,42.097,-79.2353,32.02,39,0,7.0
871,Valparaiso,CL,2022-02-06 17:42:40,-33.0393,-71.6273,67.64,77,75,6.91
872,Scarborough,GB,2022-02-06 17:43:11,54.2797,-0.4044,40.51,81,96,4.0
873,Port Maria,JM,2022-02-06 17:44:18,18.3685,-76.8895,83.97,76,27,11.14
874,Alekseyevka,RU,2022-02-06 17:44:19,50.6309,38.6903,27.43,96,99,9.37
875,Weligama,LK,2022-02-06 17:44:19,5.9667,80.4167,76.87,79,85,0.58
876,Lebu,CL,2022-02-06 17:42:01,-37.6167,-73.65,66.96,63,0,13.8
877,Carnarvon,AU,2022-02-06 17:44:19,-24.8667,113.6333,75.27,69,40,18.41
878,Zhanaozen,KZ,2022-02-06 17:44:20,43.3,52.8,30.42,71,68,7.4
879,Menongue,AO,2022-02-06 17:44:20,-14.6585,17.691,61.23,94,100,4.34
880,Ornskoldsvik,SE,2022-02-06 17:41:39,63.2909,18.7153,29.35,100,100,8.05
881,Port-Gentil,GA,2022-02-06 17:39:48,-0.7193,8.7815,84.16,74,20,9.22
882,Georgetown,MY,2022-02-06 17:32:07,5.4112,100.3354,76.98,94,40,0.0
883,Bogorodskoye,RU,2022-02-06 17:44:21,56.55,37.8833,21.09,97,85,5.3
884,Riosucio,CO,2022-02-06 17:44:21,5.4216,-75.7032,64.83,73,80,2.21
885,Dikson,RU,2022-02-06 17:37:40,73.5069,80.5464,-21.28,99,68,9.66
886,Guaraciaba Do Norte,BR,2022-02-06 17:44:21,-4.1669,-40.7475,86.4,34,44,6.31
887,Maxixe,MZ,2022-02-06 17:44:22,-23.8597,35.3472,80.42,83,40,9.22
888,Goderich,CA,2022-02-06 17:43:38,43.7501,-81.7165,25.92,74,99,18.41
889,Saint-Pierre,RE,2022-02-06 17:42:02,-21.3393,55.4781,78.48,78,0,5.75
890,Harpanahalli,IN,2022-02-06 17:44:22,14.8,75.9833,70.75,67,85,9.37
891,Cozumel,MX,2022-02-06 17:40:56,20.5083,-86.9458,75.27,90,100,3.44
892,Namibe,AO,2022-02-06 17:42:20,-15.1961,12.1522,74.7,70,79,13.87
893,Ushuaia,AR,2022-02-06 17:43:07,-54.8,-68.3,55.06,58,75,5.75
894,Halifax,CA,2022-02-06 17:42:56,44.6453,-63.5724,19.99,72,0,1.99
895,Port Alfred,ZA,2022-02-06 17:44:23,-33.5906,26.891,75.43,82,3,28.25
896,Clyde River,CA,2022-02-06 17:36:13,70.4692,-68.5914,-32.57,68,0,5.75
897,East London,ZA,2022-02-06 17:34:02,-33.0153,27.9116,74.34,88,40,16.11
898,Mirabad,AF,2022-02-06 17:44:23,30.4362,61.8383,56.16,28,0,8.28
899,Chuy,UY,2022-02-06 17:44:24,-33.6971,-53.4616,74.28,41,71,12.75
900,La Plaine,DM,2022-02-06 17:44:24,15.3333,-61.25,88.09,48,20,6.91
901,Vierzon,FR,2022-02-06 17:45:24,47.2101,2.0625,51.35,87,100,21.45
902,Ushuaia,AR,2022-02-06 17:43:07,-54.8,-68.3,55.06,58,75,5.75
903,Tsabong,BW,2022-02-06 17:45:25,-26.0217,22.401,80.78,42,80,11.63
904,Jamestown,US,2022-02-06 17:43:06,42.097,-79.2353,32.02,39,0,7.0
905,San Cristobal,VE,2022-02-06 17:42:02,7.7669,-72.225,68.18,50,84,4.52
906,Mahebourg,MU,2022-02-06 17:38:05,-20.4081,57.7,79.25,83,40,11.5
907,Klaksvik,FO,2022-02-06 17:42:01,62.2266,-6.589,36.52,60,88,36.8
908,Ushuaia,AR,2022-02-06 17:43:07,-54.8,-68.3,55.06,58,75,5.75
909,Ushuaia,AR,2022-02-06 17:43:07,-54.8,-68.3,55.06,58,75,5.75
910,Joshimath,IN,2022-02-06 17:45:26,30.5667,79.5667,44.11,70,85,1.63
911,Hithadhoo,MV,2022-02-06 17:38:31,-0.6,73.0833,82.69,71,24,11.95
912,San Pedro,PH,2022-02-06 17:45:27,14.35,121.0167,78.35,78,75,5.75
913,Shiraz,IR,2022-02-06 17:45:27,29.6036,52.5388,47.64,34,0,6.91
914,Bredasdorp,ZA,2022-02-06 17:45:27,-34.5322,20.0403,74.52,60,6,8.05
915,Georgetown,MY,2022-02-06 17:45:28,5.4112,100.3354,78.73,93,40,0.0
916,Canton,CN,2022-02-06 17:43:54,23.1167,113.25,59.0,66,100,5.46
917,Ostrovnoy,RU,2022-02-06 17:36:09,68.0531,39.5131,14.32,85,100,22.28
918,Busselton,AU,2022-02-06 17:45:28,-33.65,115.3333,55.09,60,72,17.43
919,Ushuaia,AR,2022-02-06 17:43:07,-54.8,-68.3,55.06,58,75,5.75
920,Ushuaia,AR,2022-02-06 17:43:07,-54.8,-68.3,55.06,58,75,5.75
921,Marsh Harbour,BS,2022-02-06 17:41:42,26.5412,-77.0636,75.15,71,96,12.41
922,Scarborough,GB,2022-02-06 17:43:11,54.2797,-0.4044,40.51,81,96,4.0
923,Chuy,UY,2022-02-06 17:44:24,-33.6971,-53.4616,74.28,41,71,12.75
924,La Ciotat,FR,2022-02-06 17:45:29,43.1748,5.6045,55.81,52,69,24.05
925,Acajutla,SV,2022-02-06 17:45:29,13.5928,-89.8275,87.8,46,15,8.97
926,Ribeira Grande,PT,2022-02-06 17:45:30,38.5167,-28.7,63.0,82,75,17.27
927,Hithadhoo,MV,2022-02-06 17:38:31,-0.6,73.0833,82.69,71,24,11.95
928,Naliya,IN,2022-02-06 17:45:30,23.2667,68.8333,66.36,71,0,7.72
929,El Tigre,VE,2022-02-06 17:45:31,8.8875,-64.2454,92.89,33,20,9.64
930,Port Elizabeth,ZA,2022-02-06 17:45:31,-33.918,25.5701,79.11,83,20,13.8
931,Visby,SE,2022-02-06 17:45:32,57.6409,18.296,37.76,87,20,13.8
932,Cayenne,GF,2022-02-06 17:45:32,4.9333,-52.3333,82.09,84,75,5.01
933,Kuytun,RU,2022-02-06 17:45:32,54.3419,101.5036,10.99,96,100,2.13
934,Luderitz,NA,2022-02-06 17:45:32,-26.6481,15.1594,68.59,75,16,4.94
935,Kasongo,CD,2022-02-06 17:45:33,-4.45,26.6667,70.03,94,95,1.05
936,Mahebourg,MU,2022-02-06 17:38:05,-20.4081,57.7,79.25,83,40,11.5
937,Caravelas,BR,2022-02-06 17:38:25,-17.7125,-39.2481,85.17,59,0,10.74
938,Salvador,SV,2022-02-06 17:45:33,13.8333,-88.9167,84.6,32,5,2.55
939,Bambous Virieux,MU,2022-02-06 17:36:08,-20.3428,57.7575,79.21,83,40,11.5
940,Kulhudhuffushi,MV,2022-02-06 17:45:34,6.6221,73.07,80.91,67,83,9.37
941,Saint Andrews,US,2022-02-06 17:45:34,34.0454,-81.1293,46.65,38,20,11.5
942,Cape Town,ZA,2022-02-06 17:44:15,-33.9258,18.4232,73.89,66,0,1.01
943,Aqtobe,KZ,2022-02-06 17:46:34,50.2797,57.2072,19.49,86,100,15.66
944,Aksarka,RU,2022-02-06 17:46:35,66.5606,67.7975,-19.35,100,58,5.68
945,Hambantota,LK,2022-02-06 17:46:35,6.1241,81.1185,75.79,75,98,11.39
946,Taoudenni,ML,2022-02-06 17:46:35,22.6783,-3.9836,76.53,9,99,6.78
947,Ushuaia,AR,2022-02-06 17:43:07,-54.8,-68.3,55.06,58,75,5.75
948,Punta Arenas,CL,2022-02-06 17:46:36,-53.15,-70.9167,69.91,46,75,17.27
949,Cap-Aux-Meules,CA,2022-02-06 17:46:36,47.3821,-61.8597,14.05,62,75,16.11
950,Punta Arenas,CL,2022-02-06 17:46:36,-53.15,-70.9167,69.91,46,75,17.27
951,Mizan Teferi,ET,2022-02-06 17:46:37,6.9833,35.5833,68.88,51,100,1.68
952,Baza,ES,2022-02-06 17:46:37,37.4907,-2.7726,52.57,64,16,4.0
953,Ushuaia,AR,2022-02-06 17:43:07,-54.8,-68.3,55.06,58,75,5.75
954,Cape Town,ZA,2022-02-06 17:44:15,-33.9258,18.4232,73.89,66,0,1.01
955,Ancud,CL,2022-02-06 17:46:38,-41.8697,-73.8203,76.23,67,11,6.17
956,Rio Gallegos,AR,2022-02-06 17:42:01,-51.6226,-69.2181,71.65,43,75,19.57
957,Saint George,US,2022-02-06 17:36:07,37.1041,-113.5841,48.43,30,0,3.0
958,Bengkulu,ID,2022-02-06 17:46:38,-3.8004,102.2655,76.42,86,100,8.41
959,Ponta Do Sol,PT,2022-02-06 17:37:18,32.6667,-17.1,66.13,51,10,11.12
960,Mar Del Plata,AR,2022-02-06 17:44:58,-38.0023,-57.5575,66.22,90,100,23.0
961,Ibra,OM,2022-02-06 17:46:39,22.6906,58.5334,69.04,39,0,4.16
962,Port Alfred,ZA,2022-02-06 17:44:23,-33.5906,26.891,75.43,82,3,28.25
963,Mahebourg,MU,2022-02-06 17:38:05,-20.4081,57.7,79.25,83,40,11.5
964,Maniitsoq,GL,2022-02-06 17:40:52,65.4167,-52.9,4.23,75,100,15.82
965,Ribeira Grande,PT,2022-02-06 17:45:30,38.5167,-28.7,63.0,82,75,17.27
966,Sao Joao Da Barra,BR,2022-02-06 17:40:54,-21.6403,-41.0511,87.89,79,6,15.28
967,Caravelas,BR,2022-02-06 17:38:25,-17.7125,-39.2481,85.17,59,0,10.74
968,Ponta Do Sol,PT,2022-02-06 17:37:18,32.6667,-17.1,66.13,51,10,11.12
969,Cape Town,ZA,2022-02-06 17:44:15,-33.9258,18.4232,73.89,66,0,1.01
970,Marrakesh,MA,2022-02-06 17:45:34,31.6315,-8.0083,73.47,35,44,5.75
971,Longyearbyen,SJ,2022-02-06 17:46:40,78.2186,15.6401,19.24,63,40,12.66
972,Pechora,RU,2022-02-06 17:46:40,65.1472,57.2244,6.04,88,17,8.03
973,Mahebourg,MU,2022-02-06 17:38:05,-20.4081,57.7,79.25,83,40,11.5
974,Saint Anthony,US,2022-02-06 17:46:40,45.0205,-93.218,22.93,80,100,3.0
975,Santa Fe,AR,2022-02-06 17:46:41,-31.6333,-60.7,80.02,34,0,7.0
976,Brae,GB,2022-02-06 17:46:41,60.3964,-1.353,37.31,59,98,30.53
977,Punta Arenas,CL,2022-02-06 17:46:36,-53.15,-70.9167,69.91,46,75,17.27
978,Bathsheba,BB,2022-02-06 17:44:16,13.2167,-59.5167,84.81,61,40,18.41
979,Busselton,AU,2022-02-06 17:45:28,-33.65,115.3333,55.09,60,72,17.43
980,Arraial Do Cabo,BR,2022-02-06 17:43:39,-22.9661,-42.0278,91.36,58,0,18.41
981,Ponta Do Sol,PT,2022-02-06 17:37:18,32.6667,-17.1,66.13,51,10,11.12
982,Rahon,IN,2022-02-06 17:46:42,31.05,76.1167,51.21,79,76,3.42
983,Carnarvon,AU,2022-02-06 17:44:19,-24.8667,113.6333,75.27,69,40,18.41
984,Busselton,AU,2022-02-06 17:45:28,-33.65,115.3333,55.09,60,72,17.43
985,Sur,OM,2022-02-06 17:46:42,22.5667,59.5289,71.38,71,0,8.01
986,Mahebourg,MU,2022-02-06 17:38:05,-20.4081,57.7,79.25,83,40,11.5
987,Salalah,OM,2022-02-06 17:46:43,17.0151,54.0924,77.09,78,0,1.14
988,Clyde River,CA,2022-02-06 17:46:43,70.4692,-68.5914,-32.57,68,0,5.75
989,Nador,MA,2022-02-06 17:46:44,35.174,-2.9287,59.25,82,75,9.22
990,Upernavik,GL,2022-02-06 17:40:49,72.7868,-56.1549,-12.51,93,99,5.91
991,Touros,BR,2022-02-06 17:38:27,-5.1989,-35.4608,90.5,56,13,12.93
992,Chuy,UY,2022-02-06 17:44:24,-33.6971,-53.4616,74.28,41,71,12.75
993,Saint-Philippe,RE,2022-02-06 17:47:44,-21.3585,55.7679,78.39,80,96,15.08
994,Grindavik,IS,2022-02-06 17:47:44,63.8424,-22.4338,27.07,74,75,9.22
995,Paamiut,GL,2022-02-06 17:47:45,61.994,-49.6678,4.64,77,100,10.27
996,Riberalta,BO,2022-02-06 17:47:45,-10.9833,-66.1,86.2,70,75,9.22
997,Bredasdorp,ZA,2022-02-06 17:45:27,-34.5322,20.0403,74.52,60,6,8.05
998,Ushuaia,AR,2022-02-06 17:43:07,-54.8,-68.3,55.06,58,75,5.75
999,Jumla,NP,2022-02-06 17:47:46,29.2747,82.1838,33.87,63,44,5.55
1000,Cabedelo,BR,2022-02-06 17:47:36,-6.9811,-34.8339,88.47,59,32,10.51
1001,Mercedes,AR,2022-02-06 17:47:46,-34.6515,-59.4307,70.79,43,35,17.09
1002,Turukhansk,RU,2022-02-06 17:47:47,65.8167,87.9833,-10.16,100,96,3.29
1003,Ladozhskaya,RU,2022-02-06 17:47:47,45.3081,39.935,33.06,79,100,11.27
1004,Rocha,UY,2022-02-06 17:47:47,-34.4833,-54.3333,72.79,40,60,19.37
1005,Punta Arenas,CL,2022-02-06 17:46:36,-53.15,-70.9167,69.91,46,75,17.27
1006,Virginia Beach,US,2022-02-06 17:42:54,36.8529,-75.978,39.99,73,100,9.22
1007,Punta Arenas,CL,2022-02-06 17:46:36,-53.15,-70.9167,69.91,46,75,17.27
1008,Ushuaia,AR,2022-02-06 17:43:07,-54.8,-68.3,55.06,58,75,5.75
1009,Castro,BR,2022-02-06 17:44:44,-24.7911,-50.0119,77.77,66,68,7.36
1010,Hambantota,LK,2022-02-06 17:46:35,6.1241,81.1185,75.79,75,98,11.39
1011,Hermanus,ZA,2022-02-06 17:47:48,-34.4187,19.2345,70.9,84,12,9.35
1012,Coruripe,BR,2022-02-06 17:47:49,-10.1256,-36.1756,84.88,63,10,15.95
1013,Kirovsk,UA,2022-02-06 17:47:49,48.6375,38.6428,29.41,94,89,10.2
1014,Mecca,SA,2022-02-06 17:43:05,21.4267,39.8261,69.44,36,0,7.99
1015,Maraa,BR,2022-02-06 17:47:49,-1.8333,-65.3667,81.88,70,99,4.47
1016,Padampur,IN,2022-02-06 17:47:50,29.6833,73.6167,56.3,46,4,9.4
1017,Sarankhola,BD,2022-02-06 17:47:50,22.3082,89.7897,59.09,63,80,3.87
1018,Namibe,AO,2022-02-06 17:42:20,-15.1961,12.1522,74.7,70,79,13.87
1019,Husavik,IS,2022-02-06 17:47:50,66.0449,-17.3389,24.71,85,100,8.01
1020,Bataipora,BR,2022-02-06 17:47:51,-22.2953,-53.2711,85.6,55,97,8.99
1021,Arraial Do Cabo,BR,2022-02-06 17:43:39,-22.9661,-42.0278,91.36,58,0,18.41
1022,Mar Del Plata,AR,2022-02-06 17:44:58,-38.0023,-57.5575,66.22,90,100,23.0
1023,Busselton,AU,2022-02-06 17:45:28,-33.65,115.3333,55.09,60,72,17.43
1024,Novoagansk,RU,2022-02-06 17:47:51,61.9449,76.6625,-5.91,99,18,7.36
1025,Salalah,OM,2022-02-06 17:46:43,17.0151,54.0924,77.09,78,0,1.14
1026,Uusikaupunki,FI,2022-02-06 17:47:52,60.8004,21.4084,32.52,95,57,8.3
1027,Laguna,US,2022-02-06 17:47:52,38.421,-121.4238,62.01,71,0,1.99
1028,Ribeira Grande,PT,2022-02-06 17:45:30,38.5167,-28.7,63.0,82,75,17.27
1029,Numan,NG,2022-02-06 17:47:53,9.4667,12.0333,81.45,14,30,3.65
1030,Adrar,MR,2022-02-06 17:47:53,20.5022,-10.0711,78.24,7,0,7.52
1031,San Rafael,AR,2022-02-06 17:47:53,-34.6177,-68.3301,77.7,31,0,11.99
1032,Udarnyy,RU,2022-02-06 17:47:54,54.3409,42.8611,11.89,96,95,5.19
1033,Richards Bay,ZA,2022-02-06 17:47:54,-28.783,32.0377,71.92,92,21,6.02
1034,Amapa,BR,2022-02-06 17:38:25,1.0,-52.0,74.8,98,95,2.64
1035,Gat,IL,2022-02-06 17:44:57,31.61,34.7642,56.08,83,31,4.5
1036,Necochea,AR,2022-02-06 17:48:55,-38.5473,-58.7368,64.04,72,96,20.18
1037,Ushuaia,AR,2022-02-06 17:43:07,-54.8,-68.3,55.06,58,75,5.75
1038,Stornoway,GB,2022-02-06 17:48:55,58.2093,-6.3865,38.03,74,20,7.0
1039,Ushuaia,AR,2022-02-06 17:43:07,-54.8,-68.3,55.06,58,75,5.75
1040,Shubarkuduk,KZ,2022-02-06 17:48:55,49.1447,56.4872,16.38,97,100,8.72
1041,Longyearbyen,SJ,2022-02-06 17:46:40,78.2186,15.6401,19.24,63,40,12.66
1042,Cuenca,EC,2022-02-06 17:48:56,-2.8833,-78.9833,62.73,72,75,5.75
1043,Paulo Ramos,BR,2022-02-06 17:48:56,-4.2167,-45.1833,84.51,77,74,4.79
1044,Clyde River,CA,2022-02-06 17:46:43,70.4692,-68.5914,-32.57,68,0,5.75
1045,Arraial Do Cabo,BR,2022-02-06 17:43:39,-22.9661,-42.0278,91.36,58,0,18.41
1046,Ushuaia,AR,2022-02-06 17:43:07,-54.8,-68.3,55.06,58,75,5.75
1047,Ilo,PE,2022-02-06 17:48:57,-17.6394,-71.3375,72.84,71,91,6.38
1048,Port Alfred,ZA,2022-02-06 17:44:23,-33.5906,26.891,75.43,82,3,28.25
1049,Ribeira Grande,PT,2022-02-06 17:45:30,38.5167,-28.7,63.0,82,75,17.27
1050,Camopi,GF,2022-02-06 17:48:57,3.1655,-52.3158,74.97,97,99,3.85
1051,Ponta Do Sol,PT,2022-02-06 17:48:58,32.6667,-17.1,65.12,51,10,11.12
1052,Itaueira,BR,2022-02-06 17:48:58,-7.6033,-43.0256,86.95,57,88,4.7
1053,Lisburn,GB,2022-02-06 17:48:59,54.5234,-6.0353,42.58,70,40,9.22
1054,Busselton,AU,2022-02-06 17:45:28,-33.65,115.3333,55.09,60,72,17.43
1055,Ushuaia,AR,2022-02-06 17:43:07,-54.8,-68.3,55.06,58,75,5.75
1056,Bredasdorp,ZA,2022-02-06 17:45:27,-34.5322,20.0403,74.52,60,6,8.05
1057,Hit,IQ,2022-02-06 17:48:59,33.6416,42.8251,57.25,43,61,3.44
1058,Ushuaia,AR,2022-02-06 17:43:07,-54.8,-68.3,55.06,58,75,5.75
1059,Arraial Do Cabo,BR,2022-02-06 17:43:39,-22.9661,-42.0278,91.36,58,0,18.41
1060,Oyo,NG,2022-02-06 17:49:00,7.85,3.9333,86.97,16,0,0.85
1061,Busselton,AU,2022-02-06 17:45:28,-33.65,115.3333,55.09,60,72,17.43
1062,Trindade,BR,2022-02-06 17:49:00,-16.6494,-49.4889,82.15,57,91,4.34
1063,Hermanus,ZA,2022-02-06 17:47:48,-34.4187,19.2345,70.9,84,12,9.35
1064,Westland,NL,2022-02-06 17:45:05,51.9967,4.2273,46.02,78,20,18.99
1065,Ushuaia,AR,2022-02-06 17:43:07,-54.8,-68.3,55.06,58,75,5.75
1066,Mar Del Plata,AR,2022-02-06 17:44:58,-38.0023,-57.5575,66.22,90,100,23.0
1067,Callaway,US,2022-02-06 17:49:01,30.153,-85.5699,60.01,63,47,1.01
1068,Mecca,SA,2022-02-06 17:43:05,21.4267,39.8261,69.44,36,0,7.99
1069,Port-Gentil,GA,2022-02-06 17:39:48,-0.7193,8.7815,84.16,74,20,9.22
1070,Jamestown,US,2022-02-06 17:43:06,42.097,-79.2353,32.02,39,0,7.0
1071,Mahebourg,MU,2022-02-06 17:49:02,-20.4081,57.7,79.25,83,40,11.5
1072,Mar Del Plata,AR,2022-02-06 17:44:58,-38.0023,-57.5575,66.22,90,100,23.0
1073,Nuuk,GL,2022-02-06 17:49:02,64.1835,-51.7216,7.41,72,75,21.85
1074,Purranque,CL,2022-02-06 17:49:02,-40.9167,-73.1667,74.53,28,13,5.7
1075,Najran,SA,2022-02-06 17:43:05,17.4924,44.1277,63.25,36,4,5.39
1076,Hermanus,ZA,2022-02-06 17:47:48,-34.4187,19.2345,70.9,84,12,9.35
1077,Cape Town,ZA,2022-02-06 17:44:15,-33.9258,18.4232,73.89,66,0,1.01
1078,Saint-Philippe,RE,2022-02-06 17:47:44,-21.3585,55.7679,78.39,80,96,15.08
1079,Havoysund,NO,2022-02-06 17:43:14,70.9963,24.6622,30.43,73,26,29.46
1080,Qaanaaq,GL,2022-02-06 17:50:03,77.484,-69.3632,-12.26,57,60,8.59
1081,Jamestown,US,2022-02-06 17:43:06,42.097,-79.2353,32.02,39,0,7.0
1082,Port Alfred,ZA,2022-02-06 17:44:23,-33.5906,26.891,75.43,82,3,28.25
1083,Asfi,MA,2022-02-06 17:50:04,32.2994,-9.2372,61.59,73,14,20.58
1084,Najran,SA,2022-02-06 17:43:05,17.4924,44.1277,63.25,36,4,5.39
1085,Umtata,ZA,2022-02-06 17:50:04,-31.5889,28.7844,70.36,83,20,8.05
1086,Ushuaia,AR,2022-02-06 17:43:07,-54.8,-68.3,55.06,58,75,5.75
1087,Wadi Maliz,TN,2022-02-06 17:50:05,36.4681,8.5495,56.86,85,100,4.27
1088,Orapa,BW,2022-02-06 17:50:05,-21.2833,25.3667,75.78,51,40,12.33
1089,Chuy,UY,2022-02-06 17:44:24,-33.6971,-53.4616,74.28,41,71,12.75
1090,Severodvinsk,RU,2022-02-06 17:50:06,64.5635,39.8302,10.51,92,82,11.9
1091,Souillac,MU,2022-02-06 17:50:06,-20.5167,57.5167,79.36,83,40,11.5
1092,Ilhabela,BR,2022-02-06 17:50:07,-23.7781,-45.3581,82.44,84,100,6.04
1093,Kavaratti,IN,2022-02-06 17:41:55,10.5669,72.642,78.24,67,44,9.55
1094,Boa Vista,BR,2022-02-06 17:50:07,2.8197,-60.6733,87.78,51,75,11.5
1095,Ribeira Grande,PT,2022-02-06 17:45:30,38.5167,-28.7,63.0,82,75,17.27
1096,High Rock,BS,2022-02-06 17:50:08,26.6208,-78.2833,78.82,72,27,10.04
1097,Cape Town,ZA,2022-02-06 17:44:15,-33.9258,18.4232,73.89,66,0,1.01
1098,Punta Arenas,CL,2022-02-06 17:46:36,-53.15,-70.9167,69.91,46,75,17.27
1099,Kayes,ML,2022-02-06 17:50:09,14.0,-11.0,95.18,5,0,9.33
1100,Ushuaia,AR,2022-02-06 17:43:07,-54.8,-68.3,55.06,58,75,5.75
1101,San Cristobal,VE,2022-02-06 17:42:02,7.7669,-72.225,68.18,50,84,4.52
1102,Ushuaia,AR,2022-02-06 17:43:07,-54.8,-68.3,55.06,58,75,5.75
1103,Pangnirtung,CA,2022-02-06 17:50:09,66.1451,-65.7125,-31.0,61,40,2.3
1104,Arraial Do Cabo,BR,2022-02-06 17:43:39,-22.9661,-42.0278,91.36,58,0,18.41
1105,Ostrovnoy,RU,2022-02-06 17:50:10,68.0531,39.5131,14.14,86,96,22.17
1106,Bambous Virieux,MU,2022-02-06 17:50:11,-20.3428,57.7575,79.21,83,40,11.5
1107,Torbay,CA,2022-02-06 17:40:46,47.6666,-52.7314,17.58,83,100,17.27
1108,Bonavista,CA,2022-02-06 17:40:49,48.6499,-53.1147,17.11,65,100,24.18
1109,Ushuaia,AR,2022-02-06 17:43:07,-54.8,-68.3,55.06,58,75,5.75
1110,Unai,BR,2022-02-06 17:50:12,-16.3575,-46.9061,71.73,91,100,2.82
1111,Ushuaia,AR,2022-02-06 17:43:07,-54.8,-68.3,55.06,58,75,5.75
1112,Cidreira,BR,2022-02-06 17:50:12,-30.1811,-50.2056,81.59,50,24,13.31
1113,Clyde River,CA,2022-02-06 17:46:43,70.4692,-68.5914,-32.57,68,0,5.75
1114,Pangnirtung,CA,2022-02-06 17:50:09,66.1451,-65.7125,-31.0,61,40,2.3
1115,Parabel,RU,2022-02-06 17:50:13,58.6978,81.4825,5.99,98,87,5.59
1116,San Pedro De Uraba,CO,2022-02-06 17:50:13,8.2752,-76.3764,86.38,57,58,5.06
1117,Punta Arenas,CL,2022-02-06 17:46:36,-53.15,-70.9167,69.91,46,75,17.27
1118,Longyearbyen,SJ,2022-02-06 17:46:40,78.2186,15.6401,19.24,63,40,12.66
1119,Qaanaaq,GL,2022-02-06 17:50:03,77.484,-69.3632,-12.26,57,60,8.59
1120,Port Elizabeth,ZA,2022-02-06 17:45:31,-33.918,25.5701,79.11,83,20,13.8
1121,Jamestown,US,2022-02-06 17:43:06,42.097,-79.2353,32.02,39,0,7.0
1122,Port Alfred,ZA,2022-02-06 17:44:23,-33.5906,26.891,75.43,82,3,28.25
1123,Betma,IN,2022-02-06 17:51:14,22.6833,75.6167,64.04,30,0,0.78
1124,Nanortalik,GL,2022-02-06 17:51:14,60.1432,-45.2371,13.86,75,100,20.07
1125,Vila Velha,BR,2022-02-06 17:51:15,-20.3297,-40.2925,87.75,75,20,8.99
1126,Grindavik,IS,2022-02-06 17:47:44,63.8424,-22.4338,27.07,74,75,9.22
1127,Bredasdorp,ZA,2022-02-06 17:45:27,-34.5322,20.0403,74.52,60,6,8.05
1128,Port Elizabeth,ZA,2022-02-06 17:45:31,-33.918,25.5701,79.11,83,20,13.8
1129,Romanovo,RU,2022-02-06 17:51:16,52.6182,81.2271,-1.25,98,12,5.37
1130,Hermanus,ZA,2022-02-06 17:47:48,-34.4187,19.2345,70.9,84,12,9.35
1131,East London,ZA,2022-02-06 17:51:16,-33.0153,27.9116,74.34,88,40,16.11
1132,Carnarvon,AU,2022-02-06 17:44:19,-24.8667,113.6333,75.27,69,40,18.41
1133,Mitsamiouli,KM,2022-02-06 17:51:16,-11.3847,43.2844,82.69,83,20,2.3
1134,Kingston,JM,2022-02-06 17:49:59,17.997,-76.7936,84.15,60,20,3.0
1135,Ushuaia,AR,2022-02-06 17:43:07,-54.8,-68.3,55.06,58,75,5.75
1136,Umm Lajj,SA,2022-02-06 17:51:17,25.0213,37.2685,68.16,48,0,21.07
1137,Gainesville,US,2022-02-06 17:50:54,29.6516,-82.3248,54.72,94,100,9.22
1138,Olinda,BR,2022-02-06 17:51:17,-8.0089,-34.8553,85.73,58,20,9.22
1139,Gat,IL,2022-02-06 17:44:57,31.61,34.7642,56.08,83,31,4.5
1140,Nikel,RU,2022-02-06 17:51:18,69.4128,30.222,19.58,95,15,7.16
1141,Am Timan,TD,2022-02-06 17:51:18,11.0297,20.2827,79.97,14,11,5.91
1142,Luena,AO,2022-02-06 17:51:18,-11.7833,19.9167,64.31,78,91,4.97
1143,Olafsvik,IS,2022-02-06 17:37:09,64.8945,-23.7142,28.18,70,86,16.71
1144,Ponta Do Sol,PT,2022-02-06 17:48:58,32.6667,-17.1,65.12,51,10,11.12
1145,Ushuaia,AR,2022-02-06 17:43:07,-54.8,-68.3,55.06,58,75,5.75
1146,Linares,CL,2022-02-06 17:51:19,-35.85,-71.6,96.76,12,0,6.13
1147,Ouesso,CG,2022-02-06 17:51:19,1.6136,16.0517,79.74,24,98,1.54
1148,Castro,BR,2022-02-06 17:44:44,-24.7911,-50.0119,77.77,66,68,7.36
1149,Humaita,BR,2022-02-06 17:51:20,-7.5061,-63.0208,86.85,72,88,1.77
1150,Torbay,CA,2022-02-06 17:51:20,47.6666,-52.7314,17.58,83,100,17.27
1151,Caxito,AO,2022-02-06 17:51:21,-8.5785,13.6643,79.38,66,53,7.61
1152,Port-Gentil,GA,2022-02-06 17:39:48,-0.7193,8.7815,84.16,74,20,9.22
1153,Cape Town,ZA,2022-02-06 17:44:15,-33.9258,18.4232,73.89,66,0,1.01
1154,Harper,LR,2022-02-06 17:51:21,4.375,-7.7169,81.64,74,86,10.04
1155,Ponta Do Sol,PT,2022-02-06 17:48:58,32.6667,-17.1,65.12,51,10,11.12
1156,Antalaha,MG,2022-02-06 17:51:21,-14.9003,50.2788,79.2,80,69,3.98
1157,Warsaw,PL,2022-02-06 17:47:52,52.2298,21.0118,41.79,85,75,1.99
1158,Bathsheba,BB,2022-02-06 17:44:16,13.2167,-59.5167,84.81,61,40,18.41
1159,Dikson,RU,2022-02-06 17:51:22,73.5069,80.5464,-20.88,99,82,9.37
1160,San Ramon,US,2022-02-06 17:51:22,37.7799,-121.978,58.42,65,0,0.0
1161,Cotonou,BJ,2022-02-06 17:50:53,6.3654,2.4183,85.98,74,20,9.22
1162,Domodossola,IT,2022-02-06 17:51:23,46.1165,8.2931,46.33,65,88,6.76
1163,Aswan,EG,2022-02-06 17:51:23,24.0934,32.907,65.5,25,0,9.22
1164,Ilulissat,GL,2022-02-06 17:51:23,69.2167,-51.1,-2.18,93,100,4.63
1165,Alta Floresta,BR,2022-02-06 17:50:23,-9.8756,-56.0861,85.82,74,20,4.61
1166,Gamba,GA,2022-02-06 17:51:24,-2.65,10.0,78.1,83,53,5.93
1167,San Carlos De Bariloche,AR,2022-02-06 17:50:53,-41.1456,-71.3082,79.25,21,20,11.5
1168,Lethem,GY,2022-02-06 17:52:24,3.3803,-59.7968,93.11,43,94,9.01
1169,Olinda,BR,2022-02-06 17:51:17,-8.0089,-34.8553,85.73,58,20,9.22
1170,Richmond,US,2022-02-06 17:51:01,37.5538,-77.4603,40.23,42,20,5.01
1171,Longyearbyen,SJ,2022-02-06 17:46:40,78.2186,15.6401,19.24,63,40,12.66
1172,Hithadhoo,MV,2022-02-06 17:49:55,-0.6,73.0833,82.69,71,24,11.95
1173,Bambous Virieux,MU,2022-02-06 17:50:11,-20.3428,57.7575,79.21,83,40,11.5
1174,Kavaratti,IN,2022-02-06 17:52:25,10.5669,72.642,78.24,67,44,9.55
1175,Krasnyy Tkach,RU,2022-02-06 17:52:25,55.4721,39.0802,17.35,98,94,3.94
1176,Georgetown,MY,2022-02-06 17:45:28,5.4112,100.3354,78.73,93,40,0.0
1177,Lebu,CL,2022-02-06 17:52:25,-37.6167,-73.65,66.96,63,0,13.8
1178,Itarema,BR,2022-02-06 17:52:26,-2.9248,-39.9167,85.86,61,26,14.2
1179,Qaanaaq,GL,2022-02-06 17:50:03,77.484,-69.3632,-12.26,57,60,8.59
1180,Torbay,CA,2022-02-06 17:51:20,47.6666,-52.7314,17.58,83,100,17.27
1181,Barcelos,PT,2022-02-06 17:52:26,41.5388,-8.6151,58.68,68,32,4.9
1182,Mangan,IN,2022-02-06 17:52:27,27.5167,88.5333,51.3,72,57,1.1
1183,Hermanus,ZA,2022-02-06 17:47:48,-34.4187,19.2345,70.9,84,12,9.35
1184,Mar Del Plata,AR,2022-02-06 17:44:58,-38.0023,-57.5575,66.22,90,100,23.0
1185,Chuy,UY,2022-02-06 17:44:24,-33.6971,-53.4616,74.28,41,71,12.75
1186,Hermanus,ZA,2022-02-06 17:47:48,-34.4187,19.2345,70.9,84,12,9.35
1187,Maceio,BR,2022-02-06 17:52:27,-9.6658,-35.7353,89.04,51,20,16.11
1188,Qaanaaq,GL,2022-02-06 17:50:03,77.484,-69.3632,-12.26,57,60,8.59
1189,Georgetown,MY,2022-02-06 17:45:28,5.4112,100.3354,78.73,93,40,0.0
1190,Saint-Philippe,RE,2022-02-06 17:47:44,-21.3585,55.7679,78.39,80,96,15.08
1191,East London,ZA,2022-02-06 17:51:16,-33.0153,27.9116,74.34,88,40,16.11
1192,Sept-Iles,CA,2022-02-06 17:52:28,50.2001,-66.3821,3.06,57,20,5.99
1193,Doha,QA,2022-02-06 17:51:57,25.2867,51.5333,62.58,59,0,11.5
1194,Port Alfred,ZA,2022-02-06 17:44:23,-33.5906,26.891,75.43,82,3,28.25
1195,Ushuaia,AR,2022-02-06 17:43:07,-54.8,-68.3,55.06,58,75,5.75
1196,Dikson,RU,2022-02-06 17:51:22,73.5069,80.5464,-20.88,99,82,9.37
1197,Kuvshinovo,RU,2022-02-06 17:52:29,57.0295,34.1725,28.4,94,82,7.43
1198,Piacabucu,BR,2022-02-06 17:52:29,-10.4056,-36.4344,85.14,63,18,14.07
1199,Bajram Curri,AL,2022-02-06 17:52:29,42.3554,20.0784,44.73,88,31,5.99
1200,Pimentel,PE,2022-02-06 17:43:14,-6.8367,-79.9342,77.29,61,75,11.5
1201,Busselton,AU,2022-02-06 17:45:28,-33.65,115.3333,55.09,60,72,17.43
1202,Rostovka,RU,2022-02-06 17:52:30,55.3842,71.8891,-4.58,98,93,6.08
1203,Sao Felix Do Xingu,BR,2022-02-06 17:52:30,-6.6447,-51.995,84.43,70,99,4.14
1204,Port Elizabeth,ZA,2022-02-06 17:45:31,-33.918,25.5701,79.11,83,20,13.8
1205,Mar Del Plata,AR,2022-02-06 17:44:58,-38.0023,-57.5575,66.22,90,100,23.0
1206,Ushuaia,AR,2022-02-06 17:43:07,-54.8,-68.3,55.06,58,75,5.75
1207,Santa Cruz,BO,2022-02-06 17:51:10,-17.8,-63.1667,87.85,48,75,17.27
1208,Ostrovnoy,RU,2022-02-06 17:50:10,68.0531,39.5131,14.14,86,96,22.17
1209,Jamestown,US,2022-02-06 17:43:06,42.097,-79.2353,32.02,39,0,7.0
1210,Cape Town,ZA,2022-02-06 17:44:15,-33.9258,18.4232,73.89,66,0,1.01
1211,Bambous Virieux,MU,2022-02-06 17:50:11,-20.3428,57.7575,79.21,83,40,11.5
1212,Punta Arenas,CL,2022-02-06 17:46:36,-53.15,-70.9167,69.91,46,75,17.27
1213,Punta Arenas,CL,2022-02-06 17:46:36,-53.15,-70.9167,69.91,46,75,17.27
1214,East London,ZA,2022-02-06 17:51:16,-33.0153,27.9116,74.34,88,40,16.11
1215,Berlevag,NO,2022-02-06 17:53:31,70.8578,29.0864,22.8,85,57,19.57
1216,Kruisfontein,ZA,2022-02-06 17:53:32,-34.0033,24.7314,75.88,58,81,15.68
1217,Hofn,IS,2022-02-06 17:53:32,64.2539,-15.2082,27.95,65,11,14.88
1218,Ponta Do Sol,PT,2022-02-06 17:48:58,32.6667,-17.1,65.12,51,10,11.12
1219,Jamestown,US,2022-02-06 17:53:32,42.097,-79.2353,32.52,38,0,8.01
1220,Qaanaaq,GL,2022-02-06 17:50:03,77.484,-69.3632,-12.26,57,60,8.59
1221,Klaksvik,FO,2022-02-06 17:48:37,62.2266,-6.589,36.52,60,80,35.99
1222,Lebu,CL,2022-02-06 17:52:25,-37.6167,-73.65,66.96,63,0,13.8
1223,Punta Arenas,CL,2022-02-06 17:46:36,-53.15,-70.9167,69.91,46,75,17.27
1224,Amapa,BR,2022-02-06 17:53:33,1.0,-52.0,73.71,98,100,3.36
1225,Longyearbyen,SJ,2022-02-06 17:46:40,78.2186,15.6401,19.24,63,40,12.66
1226,Ponta Do Sol,PT,2022-02-06 17:48:58,32.6667,-17.1,65.12,51,10,11.12
1227,Aksehir,TR,2022-02-06 17:53:33,38.3575,31.4164,26.02,82,8,3.04
1228,Hiriyur,IN,2022-02-06 17:53:34,13.9456,76.6192,76.95,55,91,0.22
1229,Ibra,OM,2022-02-06 17:46:39,22.6906,58.5334,69.04,39,0,4.16
1230,Wundanyi,KE,2022-02-06 17:53:34,-3.4019,38.364,67.68,69,95,4.5
1231,Hobyo,SO,2022-02-06 17:53:34,5.3505,48.5268,76.78,68,36,14.03
1232,Bredasdorp,ZA,2022-02-06 17:45:27,-34.5322,20.0403,74.52,60,6,8.05
1233,Dikson,RU,2022-02-06 17:51:22,73.5069,80.5464,-20.88,99,82,9.37
1234,Opuwo,NA,2022-02-06 17:53:35,-18.0607,13.84,76.98,34,97,5.61
1235,Torbay,CA,2022-02-06 17:51:20,47.6666,-52.7314,17.58,83,100,17.27
1236,Souillac,MU,2022-02-06 17:50:06,-20.5167,57.5167,79.36,83,40,11.5
1237,Tasiilaq,GL,2022-02-06 17:53:36,65.6145,-37.6368,18.28,63,100,32.84
1238,Cap Malheureux,MU,2022-02-06 17:44:17,-19.9842,57.6142,79.47,81,56,5.01
1239,Sorland,NO,2022-02-06 17:53:36,67.667,12.6934,35.46,61,100,16.64
1240,Laguna,US,2022-02-06 17:47:52,38.421,-121.4238,62.01,71,0,1.99
1241,Grand-Lahou,CI,2022-02-06 17:53:37,5.1367,-5.0242,81.37,77,68,11.23
1242,Vestmannaeyjar,IS,2022-02-06 17:53:37,63.4427,-20.2734,31.19,69,0,11.5
1243,Malumfashi,NG,2022-02-06 17:53:37,11.7853,7.6218,72.54,17,0,9.8
1244,Saint-Philippe,RE,2022-02-06 17:47:44,-21.3585,55.7679,78.39,80,96,15.08
1245,Podosinovets,RU,2022-02-06 17:53:38,60.2776,47.0659,16.18,97,99,3.98
1246,Wawa,NG,2022-02-06 17:53:38,9.9022,4.4192,85.5,19,0,4.45
1247,Mafeteng,LS,2022-02-06 17:53:39,-29.823,27.2374,69.1,45,69,2.26
1248,Iranshahr,IR,2022-02-06 17:53:39,27.2025,60.6848,64.74,36,0,0.0
1249,Leh,IN,2022-02-06 17:53:39,34.1667,77.5833,10.27,84,87,3.4
1250,Larsnes,NO,2022-02-06 17:53:40,62.2028,5.5773,39.67,68,100,13.22
1251,Chuy,UY,2022-02-06 17:44:24,-33.6971,-53.4616,74.28,41,71,12.75
1252,Ihosy,MG,2022-02-06 17:53:40,-22.4,46.1167,69.76,92,100,7.83
1253,Novyy Urengoy,RU,2022-02-06 17:53:40,66.0833,76.6333,-20.76,100,64,3.51
1254,Hermanus,ZA,2022-02-06 17:47:48,-34.4187,19.2345,70.9,84,12,9.35
1255,Busselton,AU,2022-02-06 17:45:28,-33.65,115.3333,55.09,60,72,17.43
1256,Busselton,AU,2022-02-06 17:45:28,-33.65,115.3333,55.09,60,72,17.43
1257,Nara,JP,2022-02-06 17:53:41,34.6851,135.8049,38.48,62,18,3.2
1258,Inverness,GB,2022-02-06 17:50:04,57.4791,-4.224,37.98,85,20,5.99
1259,Kathu,TH,2022-02-06 17:54:41,7.9178,98.3332,78.62,78,59,10.42
1260,Narsaq,GL,2022-02-06 17:54:42,60.9167,-46.05,10.13,64,100,1.79
1261,Los Llanos De Aridane,ES,2022-02-06 17:54:42,28.6585,-17.9182,66.13,65,20,17.0
1262,Ushuaia,AR,2022-02-06 17:54:31,-54.8,-68.3,55.06,58,75,5.75
1263,Daloa,CI,2022-02-06 17:54:42,6.8774,-6.4502,91.45,19,35,4.54
1264,Skjervoy,NO,2022-02-06 17:54:43,70.0311,20.9714,28.4,66,50,18.68
1265,Ponta Do Sol,PT,2022-02-06 17:48:58,32.6667,-17.1,65.12,51,10,11.12
1266,Mufulira,ZM,2022-02-06 17:54:43,-12.5498,28.2407,62.89,94,91,2.28
1267,Sheltozero,RU,2022-02-06 17:54:43,61.3667,35.3667,17.1,94,93,11.21
1268,Ilam,NP,2022-02-06 17:54:44,26.9167,87.9167,47.26,87,93,1.59
1269,Arraial Do Cabo,BR,2022-02-06 17:43:39,-22.9661,-42.0278,91.36,58,0,18.41
1270,Saint-Joseph,RE,2022-02-06 17:51:30,-21.3667,55.6167,77.38,78,97,10.45
1271,Clyde River,CA,2022-02-06 17:46:43,70.4692,-68.5914,-32.57,68,0,5.75
1272,Busselton,AU,2022-02-06 17:45:28,-33.65,115.3333,55.09,60,72,17.43
1273,Solhan,TR,2022-02-06 17:54:44,38.9634,41.0293,16.83,77,96,2.8
1274,Jamestown,US,2022-02-06 17:53:32,42.097,-79.2353,32.52,38,0,8.01
1275,Saint-Philippe,RE,2022-02-06 17:47:44,-21.3585,55.7679,78.39,80,96,15.08
1276,Mahebourg,MU,2022-02-06 17:49:02,-20.4081,57.7,79.25,83,40,11.5
1277,Abu Kamal,SY,2022-02-06 17:54:45,34.4506,40.9171,55.47,47,64,6.89
1278,Carballo,ES,2022-02-06 17:54:45,43.213,-8.691,55.58,92,52,1.68
1279,Ilulissat,GL,2022-02-06 17:51:23,69.2167,-51.1,-2.18,93,100,4.63
1280,Laurel,US,2022-02-06 17:51:48,39.0993,-76.8483,36.5,44,0,1.01
1281,Luderitz,NA,2022-02-06 17:45:32,-26.6481,15.1594,68.59,75,16,4.94
1282,Ushuaia,AR,2022-02-06 17:54:31,-54.8,-68.3,55.06,58,75,5.75
1283,Taoudenni,ML,2022-02-06 17:46:35,22.6783,-3.9836,76.53,9,99,6.78
1284,Longyearbyen,SJ,2022-02-06 17:46:40,78.2186,15.6401,19.24,63,40,12.66
1285,Cape Town,ZA,2022-02-06 17:54:46,-33.9258,18.4232,72.88,67,0,1.01
1286,Tosya,TR,2022-02-06 17:54:47,41.0155,34.0401,22.87,85,26,3.69
1287,Conakry,GN,2022-02-06 17:54:47,9.538,-13.6773,87.87,55,21,11.5
1288,Ribeira Grande,PT,2022-02-06 17:45:30,38.5167,-28.7,63.0,82,75,17.27
1289,Ribeira Grande,PT,2022-02-06 17:45:30,38.5167,-28.7,63.0,82,75,17.27
1290,Dikson,RU,2022-02-06 17:51:22,73.5069,80.5464,-20.88,99,82,9.37
1291,Henties Bay,NA,2022-02-06 17:54:47,-22.116,14.2845,70.86,79,50,8.23
1292,Thompson,CA,2022-02-06 17:54:48,55.7435,-97.8558,-21.84,69,20,3.44
1293,Cape Town,ZA,2022-02-06 17:54:46,-33.9258,18.4232,72.88,67,0,1.01
1294,Ikalamavony,MG,2022-02-06 17:54:48,-21.15,46.5833,69.67,87,100,4.83
1295,Lieksa,FI,2022-02-06 17:54:48,63.3167,30.0167,26.08,92,100,17.69
1296,Nanortalik,GL,2022-02-06 17:51:14,60.1432,-45.2371,13.86,75,100,20.07
1297,Ushuaia,AR,2022-02-06 17:54:31,-54.8,-68.3,55.06,58,75,5.75
1298,Victoria,HK,2022-02-06 17:53:23,22.2855,114.1577,61.32,84,100,1.01
1299,Surt,LY,2022-02-06 17:54:49,31.2089,16.5887,61.48,51,84,5.14
1300,Bredasdorp,ZA,2022-02-06 17:45:27,-34.5322,20.0403,74.52,60,6,8.05
1301,Canico,PT,2022-02-06 17:54:49,32.6333,-16.85,65.12,78,75,3.0
1302,Tasiilaq,GL,2022-02-06 17:53:36,65.6145,-37.6368,18.28,63,100,32.84
1303,Hambantota,LK,2022-02-06 17:46:35,6.1241,81.1185,75.79,75,98,11.39
1304,Qaanaaq,GL,2022-02-06 17:50:03,77.484,-69.3632,-12.26,57,60,8.59
1305,Krasnoselkup,RU,2022-02-06 17:54:50,65.7,82.4667,-20.04,100,61,7.49
1306,Pisco,PE,2022-02-06 17:55:50,-13.7,-76.2167,70.02,83,40,9.22
1307,Hithadhoo,MV,2022-02-06 17:49:55,-0.6,73.0833,82.69,71,24,11.95
1308,Ushuaia,AR,2022-02-06 17:54:31,-54.8,-68.3,55.06,58,75,5.75
1309,Omboue,GA,2022-02-06 17:55:51,-1.5746,9.2618,78.96,83,62,6.06
1310,Mangrol,IN,2022-02-06 17:55:51,21.1167,70.1167,67.77,69,6,8.32
1311,Victoria,HK,2022-02-06 17:53:23,22.2855,114.1577,61.32,84,100,1.01
1312,Ostrovnoy,RU,2022-02-06 17:50:10,68.0531,39.5131,14.14,86,96,22.17
1313,Shatsk,RU,2022-02-06 17:55:52,54.0258,41.7119,14.56,97,94,7.63
1314,Kudahuvadhoo,MV,2022-02-06 17:55:52,2.6708,72.8944,82.11,64,47,11.12
1315,Alice Town,BS,2022-02-06 17:55:53,25.7167,-79.3,74.17,74,39,7.83
1316,Mahebourg,MU,2022-02-06 17:49:02,-20.4081,57.7,79.25,83,40,11.5
1317,Jamestown,US,2022-02-06 17:53:32,42.097,-79.2353,32.52,38,0,8.01
1318,Port Alfred,ZA,2022-02-06 17:55:53,-33.5906,26.891,75.43,82,3,28.25
1319,Nuuk,GL,2022-02-06 17:49:02,64.1835,-51.7216,7.41,72,75,21.85
1320,Ushuaia,AR,2022-02-06 17:54:31,-54.8,-68.3,55.06,58,75,5.75
1321,Sotouboua,TG,2022-02-06 17:55:54,8.5667,0.9833,85.48,15,0,1.83
1322,Sao Joao Da Barra,BR,2022-02-06 17:53:16,-21.6403,-41.0511,87.89,80,27,17.09
1323,Qaanaaq,GL,2022-02-06 17:50:03,77.484,-69.3632,-12.26,57,60,8.59
1324,Saint George,US,2022-02-06 17:55:54,37.1041,-113.5841,54.07,28,0,1.99
1325,Varkkallai,IN,2022-02-06 17:55:54,8.7341,76.7067,80.38,86,55,5.99
1326,Mwingi,KE,2022-02-06 17:55:55,-0.9344,38.0601,72.63,50,98,3.74
1327,Jamestown,US,2022-02-06 17:53:32,42.097,-79.2353,32.52,38,0,8.01
1328,Port Alfred,ZA,2022-02-06 17:55:53,-33.5906,26.891,75.43,82,3,28.25
1329,Saint George,US,2022-02-06 17:55:54,37.1041,-113.5841,54.07,28,0,1.99
1330,Husavik,IS,2022-02-06 17:47:50,66.0449,-17.3389,24.71,85,100,8.01
1331,Hermanus,ZA,2022-02-06 17:47:48,-34.4187,19.2345,70.9,84,12,9.35
1332,Qaanaaq,GL,2022-02-06 17:50:03,77.484,-69.3632,-12.26,57,60,8.59
1333,Ushuaia,AR,2022-02-06 17:54:31,-54.8,-68.3,55.06,58,75,5.75
1334,East London,ZA,2022-02-06 17:51:16,-33.0153,27.9116,74.34,88,40,16.11
1335,Port Said,EG,2022-02-06 17:55:56,31.2565,32.2841,58.98,82,40,5.75
1336,Alta Floresta,BR,2022-02-06 17:50:23,-9.8756,-56.0861,85.82,74,20,4.61
1337,Lokosovo,RU,2022-02-06 17:55:56,61.1333,74.8167,-1.53,99,55,6.31
1338,Souillac,MU,2022-02-06 17:50:06,-20.5167,57.5167,79.36,83,40,11.5
1339,Westport,US,2022-02-06 17:55:56,41.1415,-73.3579,29.98,60,72,1.01
1340,Qaanaaq,GL,2022-02-06 17:50:03,77.484,-69.3632,-12.26,57,60,8.59
1341,Cape Town,ZA,2022-02-06 17:54:46,-33.9258,18.4232,72.88,67,0,1.01
1342,Coquimbo,CL,2022-02-06 17:55:57,-29.9533,-71.3436,67.73,72,20,12.66
1343,Hithadhoo,MV,2022-02-06 17:49:55,-0.6,73.0833,82.69,71,24,11.95
1344,Busselton,AU,2022-02-06 17:55:57,-33.65,115.3333,55.09,60,72,17.43
1345,Vologda,RU,2022-02-06 17:55:58,59.2187,39.8886,10.72,96,98,7.16
1346,Port Alfred,ZA,2022-02-06 17:55:53,-33.5906,26.891,75.43,82,3,28.25
1347,Charlottesville,US,2022-02-06 17:56:58,38.0293,-78.4767,37.71,51,0,1.99
1348,Isperih,BG,2022-02-06 17:56:58,43.7167,26.8333,41.99,55,29,7.16
1349,Robertsport,LR,2022-02-06 17:56:59,6.7533,-11.3686,82.08,78,37,12.8
1350,Ushuaia,AR,2022-02-06 17:54:31,-54.8,-68.3,55.06,58,75,5.75
1351,Sept-Iles,CA,2022-02-06 17:52:28,50.2001,-66.3821,3.06,57,20,5.99
1352,Ponta Do Sol,PT,2022-02-06 17:48:58,32.6667,-17.1,65.12,51,10,11.12
1353,Pedernales,DO,2022-02-06 17:56:59,18.0384,-71.744,80.26,61,29,6.13
1354,Matagami,CA,2022-02-06 17:56:59,49.7502,-77.6328,10.51,79,100,14.97
1355,Idanre,NG,2022-02-06 17:57:00,7.1127,5.1159,82.56,21,0,1.59
1356,Naron,ES,2022-02-06 17:57:00,43.5167,-8.1528,54.59,83,64,1.5
1357,Candeias,BR,2022-02-06 17:57:00,-20.7676,-45.2764,70.81,89,100,8.81
1358,Hobyo,SO,2022-02-06 17:53:34,5.3505,48.5268,76.78,68,36,14.03
1359,Ushuaia,AR,2022-02-06 17:54:31,-54.8,-68.3,55.06,58,75,5.75
1360,Olafsvik,IS,2022-02-06 17:56:52,64.8945,-23.7142,27.48,71,80,14.58
1361,Caucaia,BR,2022-02-06 17:57:01,-3.7361,-38.6531,87.75,70,20,10.36
1362,Ushuaia,AR,2022-02-06 17:54:31,-54.8,-68.3,55.06,58,75,5.75
1363,Marquette,US,2022-02-06 17:57:02,46.5333,-87.6335,22.68,74,75,6.6
1364,Moramanga,MG,2022-02-06 17:57:02,-18.9333,48.2,66.61,95,78,3.71
1365,Hagere Hiywet,ET,2022-02-06 17:57:02,8.9833,37.85,67.06,36,93,7.9
1366,Luderitz,NA,2022-02-06 17:57:02,-26.6481,15.1594,68.59,75,16,4.94
1367,Blyth,GB,2022-02-06 17:57:03,55.1271,-1.5086,38.46,77,20,7.0
1368,Hithadhoo,MV,2022-02-06 17:49:55,-0.6,73.0833,82.69,71,24,11.95
1369,Ostrovnoy,RU,2022-02-06 17:50:10,68.0531,39.5131,14.14,86,96,22.17
1370,Nanortalik,GL,2022-02-06 17:51:14,60.1432,-45.2371,13.86,75,100,20.07
1371,Arraial Do Cabo,BR,2022-02-06 17:57:03,-22.9661,-42.0278,91.36,58,0,18.41
1372,Altay,CN,2022-02-06 17:57:04,47.8667,88.1167,8.67,46,4,10.27
1373,Sainte-Rose,GP,2022-02-06 17:57:04,16.3324,-61.6979,82.44,65,100,13.8
1374,Ushuaia,AR,2022-02-06 17:54:31,-54.8,-68.3,55.06,58,75,5.75
1375,Nisia Floresta,BR,2022-02-06 17:57:04,-6.0911,-35.2086,90.41,53,37,12.71
1376,Busselton,AU,2022-02-06 17:55:57,-33.65,115.3333,55.09,60,72,17.43
1377,Dakar,SN,2022-02-06 17:57:05,14.6937,-17.4441,86.88,65,0,11.5
1378,Bredasdorp,ZA,2022-02-06 17:56:02,-34.5322,20.0403,74.52,60,20,8.05
1379,Sur,OM,2022-02-06 17:57:05,22.5667,59.5289,71.38,71,0,8.01
1380,Port Alfred,ZA,2022-02-06 17:55:53,-33.5906,26.891,75.43,82,3,28.25
1381,Verkhnyaya Inta,RU,2022-02-06 17:57:06,65.9811,60.3094,-1.37,89,81,6.46
1382,Cape Town,ZA,2022-02-06 17:54:46,-33.9258,18.4232,72.88,67,0,1.01
1383,Vila Franca Do Campo,PT,2022-02-06 17:57:06,37.7167,-25.4333,64.2,86,74,13.58
1384,Ushuaia,AR,2022-02-06 17:54:31,-54.8,-68.3,55.06,58,75,5.75
1385,Paamiut,GL,2022-02-06 17:47:45,61.994,-49.6678,4.64,77,100,10.27
1386,Ajmer,IN,2022-02-06 17:57:07,26.45,74.6333,59.65,37,0,2.39
1387,Cape Town,ZA,2022-02-06 17:54:46,-33.9258,18.4232,72.88,67,0,1.01
1388,Arraial Do Cabo,BR,2022-02-06 17:57:03,-22.9661,-42.0278,91.36,58,0,18.41
1389,Ushuaia,AR,2022-02-06 17:54:31,-54.8,-68.3,55.06,58,75,5.75
1390,Arraial Do Cabo,BR,2022-02-06 17:57:03,-22.9661,-42.0278,91.36,58,0,18.41
1391,Arraial Do Cabo,BR,2022-02-06 17:57:03,-22.9661,-42.0278,91.36,58,0,18.41
1392,Mahon,ES,2022-02-06 17:58:08,39.8885,4.2658,50.56,76,0,0.0
1393,Bredasdorp,ZA,2022-02-06 17:56:02,-34.5322,20.0403,74.52,60,20,8.05
1394,Chuy,UY,2022-02-06 17:56:23,-33.6971,-53.4616,74.41,41,67,14.99
1395,Hofn,IS,2022-02-06 17:53:32,64.2539,-15.2082,27.95,65,11,14.88
1396,Shache,CN,2022-02-06 17:58:08,38.4167,77.2406,32.72,55,100,3.18
1397,Ribeira Grande,PT,2022-02-06 17:58:09,38.5167,-28.7,63.0,82,75,17.27
1398,Concepcion,CL,2022-02-06 17:55:14,-36.827,-73.0498,76.8,44,0,11.5
1399,Salalah,OM,2022-02-06 17:58:09,17.0151,54.0924,75.78,51,18,4.63
1400,Ushuaia,AR,2022-02-06 17:54:31,-54.8,-68.3,55.06,58,75,5.75
1401,Arraial Do Cabo,BR,2022-02-06 17:57:03,-22.9661,-42.0278,91.36,58,0,18.41
1402,Ushuaia,AR,2022-02-06 17:54:31,-54.8,-68.3,55.06,58,75,5.75
1403,Bereda,ES,2022-02-06 17:58:10,43.2686,-7.5406,49.91,92,62,3.13
1404,Brake,DE,2022-02-06 17:58:10,53.3333,8.4833,41.23,98,100,21.0
1405,Ushuaia,AR,2022-02-06 17:54:31,-54.8,-68.3,55.06,58,75,5.75
1406,Ushuaia,AR,2022-02-06 17:54:31,-54.8,-68.3,55.06,58,75,5.75
1407,Zhurivka,UA,2022-02-06 17:58:10,50.5028,31.7849,33.78,92,98,10.22
1408,Sadon,RU,2022-02-06 17:58:11,42.8518,44.0037,24.35,75,67,7.76
